station_id;station_name;stop_lon;stop_lat;state;capacity;transport_mode
2;Metro Callao;-3.70569;40.4204;IN_SERVICE    ;27;bicimad             
3;Plaza Conde Suchil;-3.7072537;40.4303223;IN_SERVICE    ;19;bicimad             
4;Malasaña;-3.7025;40.4286259;IN_SERVICE    ;27;bicimad             
5;Fuencarral;-3.7021354;40.4285212;IN_SERVICE    ;27;bicimad             
6;Colegio de Arquitectos;-3.699023;40.423178;IN_SERVICE    ;19;bicimad             
7;Hortaleza, 75;-3.6977715;40.4251906;IN_SERVICE    ;19;bicimad             
8;Metro Alonso Martínez;-3.6954403;40.4278682;IN_SERVICE    ;24;bicimad             
9;Plaza de San Miguel;-3.7095084;40.4156057;IN_SERVICE    ;24;bicimad             
10;Marqués de la Ensenada;-3.692104;40.425403;IN_SERVICE    ;23;bicimad             
11;Plaza del Dos de Mayo;-3.7036;40.427;IN_SERVICE    ;23;bicimad             
12;San Hermenegildo;-3.7061406;40.4284667;IN_SERVICE    ;27;bicimad             
13;Conde Duque;-3.7105;40.4273;IN_SERVICE    ;23;bicimad             
14;Ventura Rodríguez;-3.7133069;40.4260425;IN_SERVICE    ;27;bicimad             
15;Norte;-3.7074453;40.4262383;IN_SERVICE    ;19;bicimad             
16;San Bernardo;-3.707480849;40.4229374;IN_SERVICE    ;19;bicimad             
17;Plaza de Carlos Cambronero;-3.705051129;40.42280287;IN_SERVICE    ;19;bicimad             
18;Plaza de Pedro Zerolo;-3.6996776;40.4209251;IN_SERVICE    ;24;bicimad             
19;Prim;-3.6954983;40.4218616;IN_SERVICE    ;28;bicimad             
20;Banco de España;-3.6952465;40.4188076;IN_SERVICE    ;27;bicimad             
23;Santo Domingo;-3.708249;40.4202595;IN_SERVICE    ;24;bicimad             
24;Palacio de Oriente;-3.7106495;40.417767;IN_SERVICE    ;18;bicimad             
25A;Plaza de Celenque A;-3.7057791;40.4173703;IN_SERVICE    ;24;bicimad             
25B;Plaza de Celenque B;-3.7058976;40.4173687;IN_SERVICE    ;24;bicimad             
26;Plaza de las Salesas;-3.6945;40.4239;IN_SERVICE    ;27;bicimad             
27;Huertas;-3.6957;40.4133;IN_SERVICE    ;27;bicimad             
29;Marqués de Cubas;-3.6957434;40.4163838;IN_SERVICE    ;23;bicimad             
30;San Quintín;-3.711504;40.4192095;IN_SERVICE    ;27;bicimad             
31;Mayor;-3.7068969;40.4163638;IN_SERVICE    ;27;bicimad             
32;Plaza de la Provincia;-3.706636289;40.41466784;IN_SERVICE    ;23;bicimad             
33;Puerta del Sol;-3.7032264;40.4165363;IN_SERVICE    ;23;bicimad             
34;Jacinto Benavente;-3.7036883;40.4145422;IN_SERVICE    ;24;bicimad             
35;Doctor Letamendi, 3;-3.710062961;40.41369072;IN_SERVICE    ;23;bicimad             
36;Plaza Ramales;-3.712151;40.416876;IN_SERVICE    ;19;bicimad             
37;Calatrava, 38;-3.713482;40.41022;IN_SERVICE    ;23;bicimad             
38;Plaza de los Carros;-3.7115898;40.4113586;IN_SERVICE    ;27;bicimad             
39;Plaza de la Cebada;-3.7088337;40.4112744;IN_SERVICE    ;31;bicimad             
40;Conde de Romanones;-3.704953888;40.4131489;IN_SERVICE    ;23;bicimad             
41;Metro Antón Martín;-3.6991147;40.4122047;IN_SERVICE    ;19;bicimad             
42;Santa Isabel;-3.6982922;40.4108488;IN_SERVICE    ;27;bicimad             
43;Jesús y María;-3.702471;40.4100387;IN_SERVICE    ;18;bicimad             
44;Plaza de Nelson Mandela;-3.703864053;40.40979071;IN_SERVICE    ;19;bicimad             
45;Metro Puerta de Toledo;-3.7111034;40.4068659;IN_SERVICE    ;19;bicimad             
46;Ribera de Curtidores;-3.7071259;40.4053153;IN_SERVICE    ;27;bicimad             
47;Renfe/Cercanías Embajadores;-3.7027998;40.4045772;IN_SERVICE    ;24;bicimad             
48;Juan Sebastián Elcano;-3.701321;40.4040433;IN_SERVICE    ;23;bicimad             
49;Casa Encendida;-3.6992774;40.4060533;IN_SERVICE    ;27;bicimad             
50;Museo Reina Sofía;-3.6960398;40.4073541;IN_SERVICE    ;23;bicimad             
51;Ronda de Atocha;-3.693485631;40.40775565;IN_SERVICE    ;27;bicimad             
52;Plaza de Santa Ana;-3.7008558;40.4144689;IN_SERVICE    ;15;bicimad             
53;Plaza de Lavapiés;-3.700754126;40.40830871;IN_SERVICE    ;24;bicimad             
54;Metro Tribunal;-3.700392998;40.4265991;IN_SERVICE    ;19;bicimad             
55;Plaza de San Ildefonso;-3.7020842;40.4239757;IN_SERVICE    ;24;bicimad             
56;Plaza del Carmen ;-3.7039033;40.4190322;IN_SERVICE    ;24;bicimad             
57;Santa Cruz de Marcenado;-3.7126299;40.4295658;IN_SERVICE    ;23;bicimad             
58;Metro Chueca;-3.6978583;40.4222783;IN_SERVICE    ;27;bicimad             
60;Puerta de Alcalá;-3.689098057;40.41885249;IN_SERVICE    ;24;bicimad             
61;O Donnell;-3.6753139;40.4214551;IN_SERVICE    ;27;bicimad             
62;Hospital M. Infantil Gregorio Marañón;-3.6724968;40.4213148;IN_SERVICE    ;27;bicimad             
63;Hospital Gral. Uni. Gregorio Marañón;-3.6708959;40.4179237;IN_SERVICE    ;23;bicimad             
65;Parque del Retiro;-3.689424798;40.41670145;IN_SERVICE    ;24;bicimad             
67;CaixaForum Madrid;-3.693225;40.4108472;IN_SERVICE    ;23;bicimad             
68;Espalter;-3.6913232;40.4127692;IN_SERVICE    ;19;bicimad             
69;Parque del Retiro;-3.688822;40.409808;IN_SERVICE    ;27;bicimad             
70;Hospital Uni. Infantil Niño Jesús;-3.677872542;40.41538239;IN_SERVICE    ;27;bicimad             
71;Plaza del Doctor Laguna;-3.6739;40.4161;IN_SERVICE    ;23;bicimad             
72;Metro Sáinz de Baranda;-3.66921108;40.41591276;IN_SERVICE    ;23;bicimad             
73;Plaza de los Astros;-3.6687;40.4115;IN_SERVICE    ;23;bicimad             
74;Parque Retiro;-3.676588764;40.41206291;IN_SERVICE    ;27;bicimad             
75;Parque del Retiro;-3.6784749;40.4082717;IN_SERVICE    ;27;bicimad             
76;Avenida del Mediterráneo, 19;-3.675102;40.407271;IN_SERVICE    ;24;bicimad             
77;Plaza del Conde de Casal;-3.6707132;40.4064784;IN_SERVICE    ;18;bicimad             
78;Metro Pacífico;-3.67452406;40.40063747;IN_SERVICE    ;27;bicimad             
79;Metro Menéndez Pelayo;-3.680439824;40.40511019;IN_SERVICE    ;27;bicimad             
81;Cuesta de Moyano;-3.69183322;40.40934261;IN_SERVICE    ;24;bicimad             
82;Doctor Esquerdo;-3.6697526;40.4084556;IN_SERVICE    ;23;bicimad             
83;Pío Baroja;-3.6744795;40.4132995;IN_SERVICE    ;23;bicimad             
84;Biblioteca Pública Elena Fortún;-3.672481575;40.40357157;IN_SERVICE    ;23;bicimad             
85;Parque del Retiro;-3.679891;40.4213143;IN_SERVICE    ;27;bicimad             
86;Cibeles;-3.6933498;40.4186516;IN_SERVICE    ;24;bicimad             
87;Ayala;-3.6832566;40.427736;IN_SERVICE    ;23;bicimad             
88;Velázquez-Padilla;-3.6838303;40.4313576;IN_SERVICE    ;23;bicimad             
89;Ayala;-3.6752024;40.4272582;IN_SERVICE    ;23;bicimad             
90;Metro Velázquez;-3.6838416;40.4251493;IN_SERVICE    ;27;bicimad             
91;Hermosilla;-3.6786285;40.426049;IN_SERVICE    ;23;bicimad             
92;Claudio Coello;-3.6865463;40.4262945;IN_SERVICE    ;23;bicimad             
93;Plaza de Margaret Thatcher;-3.689336169;40.42575853;IN_SERVICE    ;23;bicimad             
94;Estación de tren de Recoletos;-3.690756;40.4232153;IN_SERVICE    ;23;bicimad             
95;Claudio Coello;-3.6869293;40.4225428;IN_SERVICE    ;23;bicimad             
96;Alcalá;-3.682204799;40.42201516;IN_SERVICE    ;27;bicimad             
97;Metro Príncipe de Vergara;-3.6802556;40.4225364;IN_SERVICE    ;27;bicimad             
98;Plaza de Felipe II;-3.6757676;40.4241325;IN_SERVICE    ;24;bicimad             
99;Alcántara;-3.6740178;40.4260391;IN_SERVICE    ;23;bicimad             
100;Wizink Center;-3.67384;40.42478;IN_SERVICE    ;27;bicimad             
101;Metro O Donnell;-3.6696804;40.4230771;IN_SERVICE    ;24;bicimad             
102;Metro Retiro;-3.6842317;40.4211845;IN_SERVICE    ;23;bicimad             
103;Ortega y Gasset;-3.686744;40.43053;IN_SERVICE    ;23;bicimad             
104;Castellana;-3.68958;40.42677;IN_SERVICE    ;23;bicimad             
105;Serrano, 46;-3.6875418;40.4270832;IN_SERVICE    ;23;bicimad             
106B;Plaza de Colón B;-3.68789;40.424776;IN_SERVICE    ;19;bicimad             
107;Serrano;-3.68838411;40.42156087;IN_SERVICE    ;23;bicimad             
108;Mártires Concepcionistas;-3.670652;40.427402;IN_SERVICE    ;27;bicimad             
109;Marqués de Salamanca;-3.6814521;40.4301245;IN_SERVICE    ;23;bicimad             
110;Intercambiador de Moncloa;-3.7201021;40.434745;IN_SERVICE    ;23;bicimad             
111A;Metro Moncloa A;-3.7175248;40.4336027;IN_SERVICE    ;23;bicimad             
111B;Metro Moncloa B;-3.7177434;40.433913;IN_SERVICE    ;23;bicimad             
112;Paseo de Moret;-3.724736;40.4326901;IN_SERVICE    ;23;bicimad             
113;Teleférico Madrid;-3.7207263;40.427538;IN_SERVICE    ;24;bicimad             
114;Quintana;-3.7174631;40.4278379;IN_SERVICE    ;23;bicimad             
115;Ferraz;-3.717051506;40.42531477;IN_SERVICE    ;23;bicimad             
116A;Plaza de España;-3.7130447;40.4236775;IN_SERVICE    ;18;bicimad             
116B;Metro Plaza de España;-3.71046;40.423684;IN_SERVICE    ;18;bicimad             
117;Altamirano ;-3.7188898;40.4309797;IN_SERVICE    ;23;bicimad             
118;OFICINA DEL SER, APR Y BICIREGISTRO;-3.6882407;40.400781;IN_SERVICE    ;23;bicimad             
119;Méndez Álvaro;-3.6862653;40.4012905;IN_SERVICE    ;23;bicimad             
120;Metro Palos de la Frontera;-3.694825102;40.40309045;IN_SERVICE    ;27;bicimad             
121;Glorieta de Santa María de la Cabeza;-3.6986027;40.4017487;IN_SERVICE    ;27;bicimad             
122;Santa Engracia;-3.6963659;40.4295362;IN_SERVICE    ;23;bicimad             
123;Metro Argüelles;-3.7133412;40.4306458;IN_SERVICE    ;27;bicimad             
124;Metro Bilbao;-3.6993695;40.430969;IN_SERVICE    ;27;bicimad             
125;Fdez. de la Hoz;-3.6948;40.4353;IN_SERVICE    ;27;bicimad             
126;General Álvarez de Castro;-3.7018044;40.4345976;IN_SERVICE    ;27;bicimad             
127;Mercado Municipal de Vallehermoso;-3.708439;40.4338516;IN_SERVICE    ;27;bicimad             
128;Metro Islas Filipinas;-3.715550146;40.43898707;IN_SERVICE    ;27;bicimad             
129;Metro Alonso Cano;-3.6982353;40.4383865;IN_SERVICE    ;27;bicimad             
130;Metro Ríos Rosas;-3.70164;40.44156;IN_SERVICE    ;23;bicimad             
131;Plaza de Juan Zorrilla;-3.70403123;40.4417884;IN_SERVICE    ;23;bicimad             
132;Glorieta de Cuatro Caminos;-3.70360525;40.4463775;IN_SERVICE    ;27;bicimad             
133;Raimundo Fdez. Villaverde;-3.7001669;40.447125;IN_SERVICE    ;24;bicimad             
134;María de Guzmán;-3.6955687;40.4441818;IN_SERVICE    ;23;bicimad             
135;Plaza de San Juan de la Cruz;-3.692734;40.441481;IN_SERVICE    ;23;bicimad             
136;Metro Nuevos Ministerios;-3.690769;40.4451244;IN_SERVICE    ;23;bicimad             
137;Plaza de la República Argentina;-3.6853377;40.4454477;IN_SERVICE    ;24;bicimad             
138;Estación de tren Nuevos Ministerios;-3.6914063;40.4457414;IN_SERVICE    ;23;bicimad             
139;José Gutiérrez Abascal;-3.690419307;40.43939562;IN_SERVICE    ;24;bicimad             
140;Velázquez;-3.6830583;40.4387566;IN_SERVICE    ;27;bicimad             
141;Plaza de Emilio Castelar;-3.6893917;40.4354047;IN_SERVICE    ;12;bicimad             
142;Bajo elevado de Eduardo Dato;-3.6879154;40.4334087;IN_SERVICE    ;23;bicimad             
186;General Pardiñas;-3.6783016;40.4289804;IN_SERVICE    ;23;bicimad             
144;Metro Diego de León;-3.675556;40.4324081;IN_SERVICE    ;27;bicimad             
145;Ortega y Gasset 87;-3.6712823;40.429887;IN_SERVICE    ;23;bicimad             
146;María Francisca, 3;-3.6788499;40.4442541;IN_SERVICE    ;19;bicimad             
147;Doctor Arce 45;-3.6794;40.4484;IN_SERVICE    ;23;bicimad             
148;Serrano 210;-3.6813971;40.451117;IN_SERVICE    ;23;bicimad             
149;Plaza de Quito;-3.6879303;40.4498515;IN_SERVICE    ;22;bicimad             
151;Orense 12;-3.695359265;40.44881225;IN_SERVICE    ;27;bicimad             
152;General Perón, 4;-3.6989;40.4525;IN_SERVICE    ;23;bicimad             
153;General Perón;-3.6936;40.4523;IN_SERVICE    ;23;bicimad             
154;Orense 36;-3.6946218;40.4548456;IN_SERVICE    ;24;bicimad             
155;San Germán 57;-3.70093019;40.45733423;IN_SERVICE    ;23;bicimad             
156;Sor Ángela de la Cruz-Paseo Castellana;-3.691533;40.4592351;IN_SERVICE    ;24;bicimad             
158;Alberto Alcocer;-3.684715;40.4585318;IN_SERVICE    ;23;bicimad             
159;Paseo de la Habana 63;-3.6835926;40.4543852;IN_SERVICE    ;23;bicimad             
160;Metro Colombia;-3.6763439;40.4572466;IN_SERVICE    ;24;bicimad             
161;Intercambiador de Príncipe Pío A;-3.722099321;40.42219247;IN_SERVICE    ;27;bicimad             
162;Metro Pirámides;-3.7105765;40.4034968;IN_SERVICE    ;23;bicimad             
163;Metro Acacias;-3.706445;40.4037586;IN_SERVICE    ;19;bicimad             
164;Paseo de las Delicias;-3.69461;40.39723;IN_SERVICE    ;27;bicimad             
165;Entrada Matadero;-3.697596;40.392888;IN_SERVICE    ;43;bicimad             
166;Viaducto de Segovia;-3.713377023;40.41390473;IN_SERVICE    ;26;bicimad             
167;Segovia 45;-3.71748917;40.41374771;IN_SERVICE    ;27;bicimad             
168;Santa María Cabeza;-3.6959;40.4046;IN_SERVICE    ;23;bicimad             
169;Glorieta de Pirámides;-3.713823;40.401589;IN_SERVICE    ;24;bicimad             
170;Paseo de la Esperanza, 21;-3.7043956;40.4010554;IN_SERVICE    ;24;bicimad             
171;Embajadores-Cáceres;-3.6984023;40.3997013;IN_SERVICE    ;27;bicimad             
172;Estación de tren de Delicias;-3.6934926;40.4008279;IN_SERVICE    ;23;bicimad             
173;Paseo Esperanza;-3.7024839;40.3983467;IN_SERVICE    ;24;bicimad             
174;Paseo de las Yeserías, 45;-3.706525885;40.39742958;IN_SERVICE    ;27;bicimad             
175;Jaime el Conquistador;-3.69834452;40.3962264;IN_SERVICE    ;19;bicimad             
177;Metro Legazpi;-3.694187637;40.39144709;IN_SERVICE    ;23;bicimad             
178;Junta Municipal Distrito de Retiro;-3.6788343;40.4029202;IN_SERVICE    ;24;bicimad             
180;Estación Sur Méndez Álvaro B;-3.67589;40.3940423;IN_SERVICE    ;23;bicimad             
181;Ibiza;-3.67644354;40.41816933;IN_SERVICE    ;27;bicimad             
182;Parque Roma;-3.6657777;40.4186666;IN_SERVICE    ;23;bicimad             
183;Hermosilla;-3.669339;40.425635;IN_SERVICE    ;23;bicimad             
184;Marqués de Zafra, 24;-3.6653055;40.426;IN_SERVICE    ;24;bicimad             
185;Parque Quinta de la Fuente del Berro;-3.6615277;40.4250833;IN_SERVICE    ;24;bicimad             
143;Diego de León;-3.6780802;40.434676;IN_SERVICE    ;23;bicimad             
187;Alejandro González;-3.6638249;40.4301326;IN_SERVICE    ;23;bicimad             
188;Puente de Ventas;-3.6590286;40.4312562;IN_SERVICE    ;27;bicimad             
189;Virgen de la Alegría;-3.6554918;40.4351256;IN_SERVICE    ;23;bicimad             
190;Velázquez;-3.6833753;40.4343053;IN_SERVICE    ;23;bicimad             
191;Metro Diego de León;-3.674077784;40.43456939;IN_SERVICE    ;19;bicimad             
192;Avda. de los Toreros;-3.671467718;40.43182646;IN_SERVICE    ;27;bicimad             
193;Plaza de las Ventas;-3.6655555;40.4324722;IN_SERVICE    ;27;bicimad             
194;Intercambiador de Avenida de América;-3.6771535;40.4372638;IN_SERVICE    ;24;bicimad             
195;Indalecio Hernández;-3.6754444;40.4392222;IN_SERVICE    ;24;bicimad             
196;Metro Prosperidad;-3.6752218;40.4442237;IN_SERVICE    ;27;bicimad             
197;Parque de Berlín;-3.677916;40.4516059;IN_SERVICE    ;23;bicimad             
198;Metro Rubén Darío;-3.6891;40.432;IN_SERVICE    ;23;bicimad             
199;Fernando el Católico, 61;-3.7149166;40.4343611;IN_SERVICE    ;27;bicimad             
200;Metro Quevedo;-3.704578981;40.43375361;IN_SERVICE    ;24;bicimad             
201;Metro Canal;-3.7038333;40.4386944;IN_SERVICE    ;23;bicimad             
202;Parque de Santander;-3.7083;40.4413;IN_SERVICE    ;27;bicimad             
203;General Ampudia;-3.7144722;40.44175;IN_SERVICE    ;24;bicimad             
204;Doctor Santero;-3.7040397;40.4476488;IN_SERVICE    ;23;bicimad             
205;Metro Estrecho;-3.7032777;40.4535;IN_SERVICE    ;23;bicimad             
206;Metro Tetuán;-3.69895;40.46088;IN_SERVICE    ;23;bicimad             
207;Plaza de la Remonta;-3.6973352;40.4630443;IN_SERVICE    ;19;bicimad             
208;Intercambiador de Plaza de Castilla;-3.6890611;40.4662811;IN_SERVICE    ;18;bicimad             
209;Plaza de Castilla;-3.6887;40.4657;IN_SERVICE    ;23;bicimad             
210;Calle de las Tres Cruces;-3.7027164;40.4196518;IN_SERVICE    ;27;bicimad             
211;Desengaño;-3.70239;40.42059;IN_SERVICE    ;23;bicimad             
212;Metro Marqués de Vadillo;-3.716591;40.398247;IN_SERVICE    ;27;bicimad             
213;Glorieta de Cádiz;-3.7002247;40.3889918;IN_SERVICE    ;23;bicimad             
214;Condesa de Venadito;-3.6569031;40.4434316;IN_SERVICE    ;24;bicimad             
215;Gutierre de Cetina;-3.6408093;40.429588;IN_SERVICE    ;23;bicimad             
216;Plaza de Puerta del Ángel;-3.72897;40.4141;IN_SERVICE    ;27;bicimad             
217;Hospital Universitario La Paz;-3.6890758;40.480884;IN_SERVICE    ;23;bicimad             
218;Camino de los Vinateros A;-3.6572967;40.4105478;IN_SERVICE    ;23;bicimad             
219;Camino de los Vinateros B;-3.6467338;40.4083593;IN_SERVICE    ;18;bicimad             
220;Plaza del Encuentro;-3.651384;40.406156;IN_SERVICE    ;24;bicimad             
221;Metro Pavones;-3.634744479;40.40049203;IN_SERVICE    ;23;bicimad             
222;Eugenio Caxes;-3.7026789;40.3917871;IN_SERVICE    ;23;bicimad             
223;Ermita del Santo;-3.724576;40.406448;IN_SERVICE    ;27;bicimad             
224;Parque de Caramuel;-3.7287;40.409;IN_SERVICE    ;27;bicimad             
225;Sierra Toledana;-3.660345;40.402506;IN_SERVICE    ;24;bicimad             
226;Sierra Toledana;-3.660776868;40.39901532;IN_SERVICE    ;23;bicimad             
227;Arroyo del Olivar;-3.665936243;40.39382978;IN_SERVICE    ;24;bicimad             
228;San Delfín;-3.708042973;40.39440608;IN_SERVICE    ;18;bicimad             
229;Centro Deportivo Municipal Concepción;-3.6486508;40.4369378;IN_SERVICE    ;23;bicimad             
230;Carlota O´Neill;-3.6488254;40.4436792;IN_SERVICE    ;24;bicimad             
231;Derechos Humanos;-3.6557193;40.4398283;IN_SERVICE    ;24;bicimad             
232;José María de Pereda;-3.6486169;40.4327663;IN_SERVICE    ;27;bicimad             
233;El dragón de La Elipa;-3.6555789;40.4229522;IN_SERVICE    ;24;bicimad             
234;Metro La Elipa;-3.6510917;40.4261278;IN_SERVICE    ;24;bicimad             
235;Sodio;-3.691076;40.389041;IN_SERVICE    ;23;bicimad             
236;Paseo Imperial;-3.7170785;40.4075794;IN_SERVICE    ;27;bicimad             
238;San Germán, 5;-3.6932611;40.4561825;IN_SERVICE    ;24;bicimad             
239;Francos Rodríguez;-3.7078331;40.4567132;IN_SERVICE    ;23;bicimad             
240;Brasilia;-3.66096;40.43666;IN_SERVICE    ;23;bicimad             
241;Camilo José Cela;-3.66779;40.4378;IN_SERVICE    ;23;bicimad             
242;Metro Parque de las Avenidas;-3.662928;40.439513;IN_SERVICE    ;23;bicimad             
243;Cartagena;-3.67012;40.43503;IN_SERVICE    ;23;bicimad             
244;Hospital Clínico San Carlos;-3.71757;40.44003;IN_SERVICE    ;23;bicimad             
245;Galileo;-3.7101381;40.4363637;IN_SERVICE    ;24;bicimad             
246;Metro Iglesia;-3.699248472;40.43595788;IN_SERVICE    ;27;bicimad             
247;Zurbano;-3.69281;40.43837;IN_SERVICE    ;23;bicimad             
248;Sinesio Delgado;-3.6879973;40.4743209;IN_SERVICE    ;27;bicimad             
249;Castellana;-3.685419183;40.47645879;IN_SERVICE    ;24;bicimad             
250;Serrano;-3.6858096;40.4406491;IN_SERVICE    ;27;bicimad             
251;Santa Hortensia;-3.66683;40.44421;IN_SERVICE    ;23;bicimad             
252;Est. tren Chamartín;-3.6839695;40.4717403;IN_SERVICE    ;23;bicimad             
253;Doctor Fleming;-3.68844;40.45546;IN_SERVICE    ;19;bicimad             
254;Plaza del Perú;-3.67656;40.461;IN_SERVICE    ;23;bicimad             
255;General López Pozas;-3.685292;40.46361;IN_SERVICE    ;23;bicimad             
256;Reina Victoria;-3.71383;40.44635;IN_SERVICE    ;23;bicimad             
257;Ciudad Universitaria;-3.730527;40.438873;IN_SERVICE    ;23;bicimad             
258;Metro Ciudad Universitaria A;-3.726939;40.444311;IN_SERVICE    ;24;bicimad             
259;Metro Ciudad Universitaria B;-3.726752004;40.44270528;IN_SERVICE    ;19;bicimad             
260;Ciudad Universitaria;-3.7272945;40.4483322;IN_SERVICE    ;24;bicimad             
261;Ciudad Universitaria;-3.7296756;40.4505516;IN_SERVICE    ;23;bicimad             
384;Metro Usera;-3.7061449;40.38707469;IN_SERVICE    ;23;bicimad             
388;Estación tren;-3.70041478;40.37837955;IN_SERVICE    ;23;bicimad             
385;Estación de tren Orcasitas;-3.70388671;40.36721104;IN_SERVICE    ;23;bicimad             
387;Isabelita Usera, 44;-3.70773972;40.38272256;IN_SERVICE    ;23;bicimad             
383;Metro San Fermín-Orcasur;-3.6939702;40.3700017;IN_SERVICE    ;23;bicimad             
386;Avenida de los Poblados, 130;-3.71331521;40.37347443;IN_SERVICE    ;23;bicimad             
476;Metro Avenida de la Paz;-3.662016;40.453493;IN_SERVICE    ;23;bicimad             
477;Metro Ciudad Lineal;-3.638904;40.438278;IN_SERVICE    ;23;bicimad             
478;José del Hierro;-3.6410572;40.44152084;IN_SERVICE    ;23;bicimad             
479;Metro Arturo Soria;-3.655837131;40.45478362;IN_SERVICE    ;27;bicimad             
480;Vicente Muzas;-3.66044255;40.45903315;IN_SERVICE    ;23;bicimad             
481;Diego Ayllón;-3.65219063;40.45117857;IN_SERVICE    ;23;bicimad             
554;Metro El Capricho;-3.5941;40.453;IN_SERVICE    ;27;bicimad             
284;Avenida de Burgos, 17;-3.675790029;40.47359388;IN_SERVICE    ;23;bicimad             
482;Metro Pueblo Nuevo;-3.6423386;40.4356873;IN_SERVICE    ;23;bicimad             
483;Marcelino Álvarez;-3.6534324;40.4297428;IN_SERVICE    ;23;bicimad             
484;Metro García Noblejas;-3.632389;40.42893071;IN_SERVICE    ;23;bicimad             
523;Carretera de Canillas;-3.65089253;40.4628701;IN_SERVICE    ;23;bicimad             
285;Santa María Magdalena;-3.6706;40.4631;IN_SERVICE    ;23;bicimad             
286;Plaza Duque de Pastrana ;-3.6779;40.4679;IN_SERVICE    ;23;bicimad             
287;Metro Bambú;-3.6762;40.4765;IN_SERVICE    ;23;bicimad             
288;Caídos de la División Azul;-3.6723;40.4664;IN_SERVICE    ;23;bicimad             
524;Glorieta Luis Rosales;-3.6543;40.4673;IN_SERVICE    ;23;bicimad             
460;Fuente Carrantona;-3.63192261;40.4070216;IN_SERVICE    ;27;bicimad             
455;Luis de Hoyos Sainz,  198;-3.62927465;40.400094;IN_SERVICE    ;23;bicimad             
456;Encomienda de Palacios, 8;-3.6464;40.4005;IN_SERVICE    ;23;bicimad             
416;Ramírez Tomé;-3.645973936;40.38875618;IN_SERVICE    ;27;bicimad             
417;Romeo y Julieta, 13;-3.66217563;40.37873799;IN_SERVICE    ;27;bicimad             
418;Puerto de Arlabán;-3.6675;40.3864;IN_SERVICE    ;27;bicimad             
496;Cronos;-3.6194333;40.4384695;IN_SERVICE    ;27;bicimad             
501;Metro Alsacia;-3.6242;40.4191;IN_SERVICE    ;23;bicimad             
498;Metro Torre Arias;-3.6178317;40.4431335;IN_SERVICE    ;27;bicimad             
499;Biblioteca Pública Municipal Canillejas;-3.6121996;40.4466561;IN_SERVICE    ;23;bicimad             
500;Aracne, 17;-3.5895;40.445;IN_SERVICE    ;27;bicimad             
497;Metro Suances;-3.6274;40.4407;IN_SERVICE    ;23;bicimad             
265;Puerto Serrano;-3.688461;40.385412;IN_SERVICE    ;23;bicimad             
351;Comandante Fontanes;-3.7211209;40.3951415;IN_SERVICE    ;23;bicimad             
350;Ervigio;-3.7315;40.3947;IN_SERVICE    ;23;bicimad             
389;Julio Merino;-3.7032;40.3831;IN_SERVICE    ;23;bicimad             
390;Avena;-3.7159;40.3773;IN_SERVICE    ;23;bicimad             
556;Cantabria, 6;-3.58772201;40.45462514;IN_SERVICE    ;24;bicimad             
555;Parque del Capricho;-3.59812171;40.45476837;IN_SERVICE    ;27;bicimad             
485;Francisco Villaespesa;-3.6464629;40.4293263;IN_SERVICE    ;23;bicimad             
570;Uni. Autónoma Madrid;-3.6938;40.4815;IN_SERVICE    ;27;bicimad             
295;Hernani;-3.6972;40.4481;IN_SERVICE    ;23;bicimad             
296;Costa Verde;-3.696862;40.469477;IN_SERVICE    ;23;bicimad             
297;Simancas;-3.69511298;40.4655;IN_SERVICE    ;23;bicimad             
323;Centro Deportivo Municipal Gallur;-3.7359;40.3984;IN_SERVICE    ;23;bicimad             
324;Metro Lucero;-3.745096152;40.40457133;IN_SERVICE    ;23;bicimad             
457;Hacienda de Pavones, 148;-3.6419;40.4026;IN_SERVICE    ;23;bicimad             
432;Maquinilla;-3.636603598;40.38071154;IN_SERVICE    ;24;bicimad             
298;Marques de Viana;-3.704478;40.463643;IN_SERVICE    ;19;bicimad             
437;Metro Sierra de Guadalupe;-3.62376457;40.38135158;IN_SERVICE    ;27;bicimad             
358;Verdad;-3.71716;40.391787;IN_SERVICE    ;23;bicimad             
352;Algorta ;-3.72745169;40.39162262;IN_SERVICE    ;23;bicimad             
492;Metro La Almudena;-3.63949891;40.42466356;IN_SERVICE    ;24;bicimad             
322;Ps. Jesuitas;-3.7351;40.408;IN_SERVICE    ;27;bicimad             
392;Metro Almendrales;-3.697856;40.38268;IN_SERVICE    ;23;bicimad             
420;Candilejas, 5;-3.66300383;40.38263599;IN_SERVICE    ;22;bicimad             
419;Estación de tren de El Pozo;-3.655868;40.3762374;IN_SERVICE    ;27;bicimad             
439;Cabeza Mesada;-3.629413;40.37647902;IN_SERVICE    ;27;bicimad             
398;Orovilla;-3.6895;40.3587;IN_SERVICE    ;27;bicimad             
569;C. Deportivo Mpal. Vicente del Bosque;-3.6965;40.4795;IN_SERVICE    ;23;bicimad             
571;Melchor Fernández Almagro;-3.7103262;40.4756475;IN_SERVICE    ;23;bicimad             
304;Valle de Mena, 5;-3.71527245;40.46962735;IN_SERVICE    ;23;bicimad             
268;Metro Arganzuela-Planetario;-3.689031464;40.39338328;IN_SERVICE    ;23;bicimad             
305;Intercambiador de Príncipe Pío B;-3.72317757;40.42276114;IN_SERVICE    ;23;bicimad             
306;Centro Deportivo Mpal Fernando Martín;-3.7121965;40.4617959;IN_SERVICE    ;23;bicimad             
486;Serrano Galvache;-3.6679379;40.471382;IN_SERVICE    ;23;bicimad             
502;Puertollano;-3.6237372;40.4425157;IN_SERVICE    ;23;bicimad             
462;Gallegos;-3.6102747;40.40240379;IN_SERVICE    ;27;bicimad             
421;Arroyo del Olivar;-3.653269;40.388435;IN_SERVICE    ;24;bicimad             
487;Manuel Uribe;-3.66503419;40.46434131;IN_SERVICE    ;23;bicimad             
422;Travesia de Palomeras, 7;-3.6705179;40.39017003;IN_SERVICE    ;24;bicimad             
423;Estación de tren Asamblea de Madrid;-3.66855013;40.38138801;IN_SERVICE    ;24;bicimad             
424;Camino de Valderribas, 47;-3.663958;40.4002231;IN_SERVICE    ;24;bicimad             
425;Ramón Perez Ayala;-3.65381017;40.40003472;IN_SERVICE    ;24;bicimad             
426;Humanes;-3.64932678;40.3952121;IN_SERVICE    ;24;bicimad             
427;Andaluces, 2;-3.64148304;40.3914244;IN_SERVICE    ;24;bicimad             
428;Estadio de Vallecas;-3.6571;40.3919;IN_SERVICE    ;24;bicimad             
393;Manuel Noya , 29;-3.7117979;40.3853787;IN_SERVICE    ;24;bicimad             
489;Serrano Galvache;-3.67144504;40.47675257;IN_SERVICE    ;24;bicimad             
490;Hnos.García Noblejas-FcoLargo Caballero;-3.62888094;40.42427523;IN_SERVICE    ;24;bicimad             
488;Ricardo Ortiz, 33;-3.65796439;40.42657032;IN_SERVICE    ;24;bicimad             
525;Metro Manoteras;-3.66269029;40.47675499;IN_SERVICE    ;24;bicimad             
504;Biblioteca Pública Municipal San Blas;-3.623466936;40.42309929;IN_SERVICE    ;24;bicimad             
503;Zaldívar;-3.62650373;40.43209033;IN_SERVICE    ;24;bicimad             
404;Junta Municipal Distrito de Villaverde;-3.710985;40.349111;IN_SERVICE    ;27;bicimad             
353;Mercedes Arteaga, 21;-3.72221757;40.39251608;IN_SERVICE    ;24;bicimad             
355;Intercambiador de Plaza Elíptica;-3.7182338;40.3854641;IN_SERVICE    ;24;bicimad             
326;Metro Alto de Extremadura;-3.739615781;40.4093795;IN_SERVICE    ;24;bicimad             
327;El Greco, 27;-3.74726153;40.40741199;IN_SERVICE    ;24;bicimad             
458;Metro Vinateros;-3.65256604;40.40991083;IN_SERVICE    ;24;bicimad             
459;Moratalaz;-3.66000272;40.40750626;IN_SERVICE    ;24;bicimad             
461;Plaza Corregidor Ldo. Antonio de Mena;-3.6408;40.4099;IN_SERVICE    ;24;bicimad             
356;Portalegre;-3.72364769;40.38937686;IN_SERVICE    ;24;bicimad             
572;Junta Mpal. Dtto. Fuencarral;-3.70997335;40.47810429;IN_SERVICE    ;24;bicimad             
573;Melchor Fernández Almagro;-3.69962571;40.47772776;IN_SERVICE    ;24;bicimad             
575;Metro Barrio del Pilar;-3.703526;40.47817;IN_SERVICE    ;24;bicimad             
574;Chantada;-3.710678;40.472695;IN_SERVICE    ;24;bicimad             
507;Seis;-3.59650295;40.44845033;IN_SERVICE    ;24;bicimad             
299;Rosario Pino;-3.69193246;40.46204955;IN_SERVICE    ;24;bicimad             
300;Capitan Blanco Argibay;-3.7031882;40.4667435;IN_SERVICE    ;24;bicimad             
301;Muller;-3.69837565;40.46518187;IN_SERVICE    ;24;bicimad             
396;Gran Avenida, 27;-3.70760649;40.36997711;IN_SERVICE    ;24;bicimad             
394;Periana, 24;-3.68765805;40.36672327;IN_SERVICE    ;24;bicimad             
397;Centro Deportivo Municipal Orcasur;-3.69838038;40.36809336;IN_SERVICE    ;24;bicimad             
399;Bohemios;-3.693901;40.356536;IN_SERVICE    ;24;bicimad             
430;Torremolinos;-3.64178999;40.38500948;IN_SERVICE    ;24;bicimad             
269;Ariel;-3.679701766;40.3930238;IN_SERVICE    ;24;bicimad             
491;Esteban Collantes;-3.637663;40.432883;IN_SERVICE    ;24;bicimad             
527;Velacho Alto;-3.65926884;40.47250314;IN_SERVICE    ;24;bicimad             
526;Plaza del Liceo;-3.64441924;40.45754368;IN_SERVICE    ;24;bicimad             
431;Puerto Canfranc, 18;-3.6634;40.3969;IN_SERVICE    ;24;bicimad             
429;Carlos M. Alvarez;-3.6635;40.3895;IN_SERVICE    ;23;bicimad             
357;Sorbe;-3.71320917;40.3898701;IN_SERVICE    ;24;bicimad             
270;Teresa L. Valcárcel;-3.69328771;40.38862908;IN_SERVICE    ;24;bicimad             
493;Arturo Soria;-3.6684167;40.47636724;IN_SERVICE    ;23;bicimad             
433;Villalobos, 28;-3.65076037;40.38161669;IN_SERVICE    ;24;bicimad             
436;Campus Sur UPM;-3.62713659;40.3901675;IN_SERVICE    ;24;bicimad             
434;Charleroi;-3.63219372;40.38191654;IN_SERVICE    ;24;bicimad             
506;Albarracín;-3.63251641;40.43397327;IN_SERVICE    ;24;bicimad             
505;Castillo de Uclés, 37;-3.62306578;40.4315255;IN_SERVICE    ;24;bicimad             
435;San Claudio;-3.63953994;40.38902883;IN_SERVICE    ;24;bicimad             
302;Ps. Dirección B;-3.703955;40.47024458;IN_SERVICE    ;24;bicimad             
463;Casalarreina, 18;-3.612318798;40.4093909;IN_SERVICE    ;24;bicimad             
464;Univ. Rey Juan Carlos;-3.61283416;40.40634029;IN_SERVICE    ;24;bicimad             
400;Metro Ciudad de los Ángeles;-3.69399661;40.36064659;IN_SERVICE    ;24;bicimad             
307;Metro Valdezarza;-3.71693008;40.46588016;IN_SERVICE    ;24;bicimad             
576;El Ferrol, 18;-3.70510525;40.47431313;IN_SERVICE    ;24;bicimad             
577;Monforte de Lemos;-3.70566914;40.47899993;IN_SERVICE    ;24;bicimad             
309;Ofelia Nieto;-3.708734;40.462051;IN_SERVICE    ;24;bicimad             
308;María Auxiliadora;-3.71346147;40.45772941;IN_SERVICE    ;24;bicimad             
510;Metro Avenida de Guadalajara;-3.61346199;40.42218968;IN_SERVICE    ;24;bicimad             
511;Aquitania 31;-3.61726728;40.41912347;IN_SERVICE    ;27;bicimad             
512;Semilla;-3.61537023;40.42667885;IN_SERVICE    ;24;bicimad             
513;Centro Deportivo Mpal. Pepu Hernández;-3.60645414;40.4271211;IN_SERVICE    ;27;bicimad             
514;María Sevilla Diago;-3.61095077;40.43283006;IN_SERVICE    ;24;bicimad             
515;Avenida de Hellin, 13;-3.61579967;40.43091667;IN_SERVICE    ;24;bicimad             
359;El Toboso;-3.7363397;40.3929901;IN_SERVICE    ;23;bicimad             
360;Ntra. Sra. Fátima;-3.7470882;40.3840155;IN_SERVICE    ;23;bicimad             
361;Metro Pan Bendito;-3.73266666;40.37734672;IN_SERVICE    ;23;bicimad             
441;Estación de tren de Santa Eugenia;-3.60948153;40.38600753;IN_SERVICE    ;24;bicimad             
442;Santa Eugenia;-3.60463;40.38305936;IN_SERVICE    ;27;bicimad             
443;Fuentespina, 33;-3.60724755;40.37941487;IN_SERVICE    ;24;bicimad             
362;Hilario Herranz Establos, 36;-3.726638;40.372839;IN_SERVICE    ;27;bicimad             
557;Metro Alameda de Osuna;-3.58815143;40.45746674;IN_SERVICE    ;24;bicimad             
290;Francisco Suárez;-3.67994416;40.46437817;IN_SERVICE    ;23;bicimad             
529;Lopez de Hoyos , 478;-3.649843;40.47175;IN_SERVICE    ;23;bicimad             
530;Metro Mar de Cristal;-3.63788349;40.4685745;IN_SERVICE    ;27;bicimad             
531;Metro Parque de Santa María;-3.6450741;40.4768782;IN_SERVICE    ;18;bicimad             
532;Metro San Lorenzo;-3.6395164;40.47490194;IN_SERVICE    ;24;bicimad             
533;San Luis, 23;-3.65511455;40.47148748;IN_SERVICE    ;23;bicimad             
106A;Plaza de Colón A;-3.687807;40.424924;IN_SERVICE    ;19;bicimad             
582;Isla Graciosa;-3.6862657;40.49262243;IN_SERVICE    ;24;bicimad             
583;Ángel Múgica;-3.68529048;40.48468297;IN_SERVICE    ;24;bicimad             
584;Metro Montecarmelo;-3.69603345;40.50501029;IN_SERVICE    ;24;bicimad             
585;Metro Fuencarral;-3.69374813;40.4954662;IN_SERVICE    ;24;bicimad             
586;Caldas Estrach;-3.6974725;40.4963916;IN_SERVICE    ;23;bicimad             
534;Mesena, 102;-3.66340634;40.46772408;IN_SERVICE    ;24;bicimad             
273;Delicias;-3.69091831;40.40381914;IN_SERVICE    ;19;bicimad             
587;Metro Paco de Lucía;-3.70865744;40.49892399;IN_SERVICE    ;27;bicimad             
588;Campo Calatrava;-3.69112254;40.50052161;IN_SERVICE    ;27;bicimad             
589;Monast. Silos;-3.70290315;40.50340494;IN_SERVICE    ;24;bicimad             
535;Metro Canillas;-3.634999;40.463575;IN_SERVICE    ;27;bicimad             
328;Cebreros, 97;-3.7521917;40.4032379;IN_SERVICE    ;23;bicimad             
329;Metro Laguna;-3.74445208;40.3988162;IN_SERVICE    ;23;bicimad             
330;Duquesa de Parcent;-3.7447281;40.39500224;IN_SERVICE    ;23;bicimad             
331;Valmojado;-3.75757186;40.39649629;IN_SERVICE    ;24;bicimad             
332;Los Yébenes, 159;-3.75181704;40.39302789;IN_SERVICE    ;23;bicimad             
363;Metro Oporto;-3.72987333;40.38745087;IN_SERVICE    ;23;bicimad             
364;Metro Opañel;-3.72378064;40.38550735;IN_SERVICE    ;23;bicimad             
536;Boj;-3.6180818;40.4560204;IN_SERVICE    ;23;bicimad             
537;Plaza López de la Plata;-3.62579439;40.45841466;IN_SERVICE    ;27;bicimad             
538;Haendel, 8;-3.62532131;40.46275082;IN_SERVICE    ;27;bicimad             
333;Illescas;-3.7562323;40.392175;IN_SERVICE    ;23;bicimad             
365;Palacio Vistalegre Arena;-3.73725908;40.38537202;IN_SERVICE    ;23;bicimad             
366;Metro Carabanchel;-3.744521;40.387737;IN_SERVICE    ;23;bicimad             
291;Plaza José María Soler;-3.66790332;40.45866532;IN_SERVICE    ;23;bicimad             
292;Centro Deportivo Municipal Pradillo;-3.6717937;40.44904126;IN_SERVICE    ;23;bicimad             
494;Metro Pinar de Chamartín;-3.666529;40.480694;IN_SERVICE    ;23;bicimad             
516;Juan Ignacio Luca Tena;-3.63110255;40.44796778;IN_SERVICE    ;27;bicimad             
368;Eugenia de Montijo;-3.74706068;40.3791024;IN_SERVICE    ;15;bicimad             
370;Avefría;-3.7308025;40.38386939;IN_SERVICE    ;23;bicimad             
590;Metro Arroyofresno;-3.72757227;40.49093014;IN_SERVICE    ;27;bicimad             
517;San Mariano;-3.61190481;40.44175279;IN_SERVICE    ;27;bicimad             
518;Tampico;-3.635345;40.444569;IN_SERVICE    ;23;bicimad             
371;Joaquin Turina, 49;-3.76182;40.372458;IN_SERVICE    ;27;bicimad             
372;Lonja de la Seda, 33;-3.76158263;40.36612215;IN_SERVICE    ;23;bicimad             
373;Metro La Peseta;-3.75787005;40.36277848;IN_SERVICE    ;23;bicimad             
374;Dinero;-3.7501466;40.3625707;IN_SERVICE    ;27;bicimad             
375;Calderilla, 4;-3.73851114;40.36521132;IN_SERVICE    ;27;bicimad             
591;Metro Mirasierra;-3.71622921;40.49108225;IN_SERVICE    ;19;bicimad             
592;Estación de tren de Pitis;-3.7249527;40.4956969;IN_SERVICE    ;27;bicimad             
376;Metro Carpetana;-3.7405438;40.39229225;IN_SERVICE    ;24;bicimad             
377;Metro Abrantes;-3.72783615;40.38091762;IN_SERVICE    ;23;bicimad             
539;Mota del Cuervo;-3.63135715;40.4648762;IN_SERVICE    ;24;bicimad             
334;Metro Campamento;-3.76815631;40.39497294;IN_SERVICE    ;24;bicimad             
335;Cardaño, 10;-3.77057541;40.39659757;IN_SERVICE    ;24;bicimad             
519;Troya, 11;-3.61191521;40.43699597;IN_SERVICE    ;24;bicimad             
378;Eugenia de Montijo, 83;-3.7509733;40.37562288;IN_SERVICE    ;24;bicimad             
379;Antonia Rodríguez Sacristán;-3.74765739;40.37313777;IN_SERVICE    ;24;bicimad             
495;Caleruega;-3.670476;40.478611;IN_SERVICE    ;24;bicimad             
593;Metro Avenida de la Ilustración;-3.71869067;40.48027409;IN_SERVICE    ;24;bicimad             
594;Pedro Rico, 49;-3.703918;40.48194;IN_SERVICE    ;24;bicimad             
595;Betanzos;-3.7132206;40.48178815;IN_SERVICE    ;24;bicimad             
596;Metro Lacoma;-3.7230043;40.4854829;IN_SERVICE    ;24;bicimad             
540;Estación de tren Fuente de la Mora;-3.6636484;40.4845596;IN_SERVICE    ;24;bicimad             
336;Calle Oliva de Plasencia, 1;-3.77915183;40.37850071;IN_SERVICE    ;24;bicimad             
337;Metro Aluche;-3.76048923;40.38614104;IN_SERVICE    ;18;bicimad             
338;Guareña;-3.765339104;40.38636234;IN_SERVICE    ;18;bicimad             
339;Estación de tren Las Águilas;-3.78061952;40.38132642;IN_SERVICE    ;24;bicimad             
597;Foresta, 8;-3.66777681;40.49853277;IN_SERVICE    ;23;bicimad             
445;C. Deportivo Mpal. Juan de Dios Román;-3.60503564;40.36334587;IN_SERVICE    ;27;bicimad             
599;Instalación Deportiva La Cabrera;-3.71920443;40.47223267;IN_SERVICE    ;27;bicimad             
343;Metro Aviación Española;-3.78339301;40.38358975;IN_SERVICE    ;23;bicimad             
344;Ocaña, 103;-3.75292035;40.38586273;IN_SERVICE    ;23;bicimad             
313;Juan XXIII, 24;-3.7169359;40.448084;IN_SERVICE    ;27;bicimad             
314;Av. Valladolid;-3.73068;40.42966;IN_SERVICE    ;27;bicimad             
315;Caroli;-3.784627;40.45862;IN_SERVICE    ;23;bicimad             
316;C. Deportivo Mpal. Ciudad De Los Poetas;-3.71995383;40.46439687;IN_SERVICE    ;19;bicimad             
317;Antonio Machado, 30;-3.71921712;40.46826955;IN_SERVICE    ;27;bicimad             
345;Fuente del Tiro;-3.7798001;40.38308791;IN_SERVICE    ;24;bicimad             
449;Metro Congosto;-3.61869106;40.37286701;IN_SERVICE    ;24;bicimad             
450;Camino de las Hormigueras, 161;-3.6370762;40.3762555;IN_SERVICE    ;24;bicimad             
294;Edificio Torres Blancas;-3.672339;40.440944;IN_SERVICE    ;24;bicimad             
604;Metro Las Tablas;-3.66955215;40.50910428;IN_SERVICE    ;23;bicimad             
348;José de Cadalso;-3.77024778;40.37959145;IN_SERVICE    ;27;bicimad             
438;Biblioteca Pública Luis Martín Santos;-3.6140607;40.3804482;IN_SERVICE    ;27;bicimad             
451; La Granja de San Ildefonso, 14;-3.62283116;40.36813427;IN_SERVICE    ;27;bicimad             
452;Las Suertes, 15;-3.6078539;40.3713613;IN_SERVICE    ;23;bicimad             
453;Metro La Gavia;-3.61253028;40.37043968;IN_SERVICE    ;27;bicimad             
454;Gran Vía del Sureste;-3.5897045;40.3631604;IN_SERVICE    ;27;bicimad             
267;Paseo de la Chopera;-3.700399665;40.395;IN_SERVICE    ;23;bicimad             
580;Metro Herrera Oria;-3.706089;40.483289;IN_SERVICE    ;23;bicimad             
150;Castellana;-3.6908;40.4491;IN_SERVICE    ;23;bicimad             
157;Plaza de Cuzco;-3.6894151;40.4591366;IN_SERVICE    ;23;bicimad             
395;Guetaria, 84B;-3.71569102;40.36916772;IN_SERVICE    ;24;bicimad             
548;Eduardo Mazón;-3.6154157;40.4521484;IN_SERVICE    ;23;bicimad             
293;Santa Rita;-3.6682882;40.4457928;IN_SERVICE    ;23;bicimad             
520;Niza;-3.60811578;40.4342806;IN_SERVICE    ;23;bicimad             
558;Biblioteca Pública Mpal. Gloria Fuertes;-3.593712;40.461137;IN_SERVICE    ;23;bicimad             
561;Plaza Nuestra Señora de Loreto;-3.585751;40.472048;IN_SERVICE    ;23;bicimad             
562;Tomillar;-3.58405573;40.46267435;IN_SERVICE    ;27;bicimad             
560;Playa de Zarauz;-3.5906847;40.4731404;IN_SERVICE    ;23;bicimad             
568;IFEMA A;-3.6178336;40.4632802;IN_SERVICE    ;27;bicimad             
405;Paseo Alberto Palacios, 42;-3.712903964;40.34492599;IN_SERVICE    ;23;bicimad             
401;Estación de tren de Villaverde Bajo;-3.683127;40.353285;IN_SERVICE    ;27;bicimad             
406;La Nave de Madrid;-3.6960817;40.3486;IN_SERVICE    ;23;bicimad             
403;Auñón, 16;-3.6775242;40.3504944;IN_SERVICE    ;23;bicimad             
280;Ps de los Melancólicos;-3.718569;40.401782;IN_SERVICE    ;23;bicimad             
367;Metro San Francisco;-3.73984;40.373972;IN_SERVICE    ;23;bicimad             
325;Ps. Jesuitas;-3.7305543;40.4106918;IN_SERVICE    ;23;bicimad             
578;Sierra de Atapuerca;-3.67042488;40.50292982;IN_SERVICE    ;23;bicimad             
446;C. Deportivo Mpal. Miguel Guillén Prim;-3.6236297;40.373826;IN_SERVICE    ;23;bicimad             
382 -Parque Eugenia de Montijo, 2;;-3.7545822;40.3783501;IN_SERVICE    ;24;bicimad             
410;Est. de tren de S. Cristóbal Industrial;-3.6992665;40.3325463;IN_SERVICE    ;24;bicimad             
319;Valdesangil;-3.7166729;40.4684218;IN_SERVICE    ;24;bicimad             
579;Maria Tubau;-3.671703587;40.51399231;IN_SERVICE    ;24;bicimad             
602;Monasterio Sobrado;-3.692837;40.5093225;IN_SERVICE    ;24;bicimad             
600;Centro Deportivo Municipal La Masó;-3.7149566;40.4825507;IN_SERVICE    ;24;bicimad             
566;Avenida de Logroño;-3.5815033;40.4703472;IN_SERVICE    ;24;bicimad             
565;Metro Barajas;-3.5838869;40.47563573;IN_SERVICE    ;24;bicimad             
467;Univ. Rey Juan Carlos;-3.6084888;40.4062361;IN_SERVICE    ;24;bicimad             
469;C. Deportivo Mpal Faustina Valladolid;-3.62299;40.40343;IN_SERVICE    ;24;bicimad             
470;Avenida Real;-3.6063672;40.4021519;IN_SERVICE    ;18;bicimad             
471;Molino Viejo;-3.60666;40.396301;IN_SERVICE    ;18;bicimad             
271;Amaltea-Meneses;-3.68317;40.394706;IN_SERVICE    ;24;bicimad             
466;Villablanca;-3.60783265;40.40894698;IN_SERVICE    ;23;bicimad             
275;Juan Antonio Vallejo-Nájera Botas, 25;-3.7082123;40.4020545;IN_SERVICE    ;23;bicimad             
475;Aurora Boreal;-3.603668;40.399236;IN_SERVICE    ;23;bicimad             
274;Estación Sur Méndez Álvaro A;-3.68134346;40.39675755;IN_SERVICE    ;23;bicimad             
605;Nuria;-3.704883;40.491644;IN_SERVICE    ;24;bicimad             
522;Metro Estadio Metropolitano;-3.60097542;40.43333298;IN_SERVICE    ;24;bicimad             
521;Metro Las Rosas;-3.6048181;40.423893;IN_SERVICE    ;24;bicimad             
508;Metro Canillejas;-3.609553;40.449095;IN_SERVICE    ;24;bicimad             
80A;Estación de Atocha A;-3.690538;40.407573;IN_SERVICE    ;23;bicimad             
80B;Estación de Atocha B;-3.6904748;40.4075211;IN_SERVICE    ;27;bicimad             
447;Adolfo Bioy Casares;-3.5981935;40.3668504;IN_SERVICE    ;27;bicimad             
412;Estación de tren de Puente de Alcocer;-3.7043083;40.3500291;IN_SERVICE    ;24;bicimad             
415;Diamante;-3.6877534;40.3532609;IN_SERVICE    ;24;bicimad             
413;Doctor Martín Arévalo;-3.707413;40.345928;IN_SERVICE    ;24;bicimad             
545;Zapatoca, 8;-3.63335803;40.47285235;IN_SERVICE    ;23;bicimad             
567;Plaza Mayor de Barajas;-3.5776537;40.4733252;IN_SERVICE    ;24;bicimad             
563;Soto Hidalgo;-3.5820745;40.4606465;IN_SERVICE    ;27;bicimad             
281;Reina Cristina;-3.6831862;40.4067247;IN_SERVICE    ;23;bicimad             
609;Metro Ronda de la Comunicación;-3.6626887;40.5157202;IN_SERVICE    ;23;bicimad             
408;Metro San Cristóbal;-3.692444;40.341725;IN_SERVICE    ;23;bicimad             
409;Eduardo Barreiros, 114;-3.7046436;40.3553495;IN_SERVICE    ;23;bicimad             
606;Fermín Caballero;-3.698485;40.487363;IN_SERVICE    ;23;bicimad             
349;Huerta de Castañeda 26;-3.742018821;40.40622096;IN_SERVICE    ;24;bicimad             
544;Gregorio Sánchez Herráez 14;-3.63657;40.477248;IN_SERVICE    ;23;bicimad             
551;Oña;-3.6658565;40.4891872;IN_SERVICE    ;23;bicimad             
552;Ana de Austria;-3.6531502;40.4994394;IN_SERVICE    ;27;bicimad             
542;Intercambiador de Valdebebas;-3.615709;40.483962;IN_SERVICE    ;23;bicimad             
320;Metro Lago;-3.7345247;40.4167792;IN_SERVICE    ;19;bicimad             
608;Estella;-3.6743568;40.4968198;IN_SERVICE    ;23;bicimad             
278;Paseo los Pontones;-3.7196;40.4040433;IN_SERVICE    ;23;bicimad             
289;Luis de Salazar;-3.6649258;40.4474166;IN_SERVICE    ;23;bicimad             
547;Rafaela Aparicio;-3.6312179;40.4792396;IN_SERVICE    ;27;bicimad             
402;Berrocal, 9;-3.67615;40.344115;IN_SERVICE    ;27;bicimad             
543;Tomas Redondo;-3.62913802;40.47178414;IN_SERVICE    ;23;bicimad             
277;Virgen del Puerto;-3.721178;40.411622;IN_SERVICE    ;15;bicimad             
272;Tejo;-3.679186;40.39663;IN_SERVICE    ;23;bicimad             
282;Parque Retiro;-3.6787796;40.4181327;IN_SERVICE    ;23;bicimad             
1;Metro Sol;-3.7054098;40.416465;IN_SERVICE    ;23;bicimad             
263;Gran Vía de San Francisco;-3.712793282;40.40833881;IN_SERVICE    ;23;bicimad             
559;Calle Babilonia, 19;-3.5882347;40.4675299;IN_SERVICE    ;23;bicimad             
581;Metro Peñagrande;-3.7163093;40.4764797;IN_SERVICE    ;24;bicimad             
598;Hospital Ramón y Cajal;-3.6923396;40.4858012;IN_SERVICE    ;24;bicimad             
341;Escalona;-3.76182259;40.39834576;IN_SERVICE    ;27;bicimad             
346;Metro Empalme;-3.7664844;40.3907438;IN_SERVICE    ;24;bicimad             
347;Est. tren Mtra Justa Freire-Poli Aluche;-3.768603;40.383554;IN_SERVICE    ;24;bicimad             
528;Albelda;-3.6573666;40.4494225;IN_SERVICE    ;24;bicimad             
312;Metro Batán;-3.7528559;40.4077495;IN_SERVICE    ;27;bicimad             
321;Metro Casa de Campo;-3.761051;40.40316;IN_SERVICE    ;27;bicimad             
310;Estación de tren de Aravaca;-3.7845536;40.4490509;IN_SERVICE    ;23;bicimad             
311;C. Universitaria;-3.733574;40.448553;IN_SERVICE    ;27;bicimad             
283;Museo Nacional del Prado;-3.6919057;40.4152082;IN_SERVICE    ;23;bicimad             
564;IFEMA B;-3.613867;40.463861;IN_SERVICE    ;23;bicimad             
468;Caños de San Pedro;-3.601922;40.403472;IN_SERVICE    ;23;bicimad             
465;Cordel de Pavones;-3.619645;40.397375;IN_SERVICE    ;24;bicimad             
414;Metro Villaverde Bajo-Cruce;-3.692163;40.350985;IN_SERVICE    ;24;bicimad             
380;Oca;-3.7335492;40.3894333;IN_SERVICE    ;24;bicimad             
411;Estación de tren de Villaverde Alto;-3.7118183;40.3417533;IN_SERVICE    ;18;bicimad             
354;Jacinto Verdaguer;-3.716052612;40.39593855;IN_SERVICE    ;24;bicimad             
318;C. Deportivo Mpal. José María Cagigal;-3.737027647;40.43205131;IN_SERVICE    ;24;bicimad             
549;Francisco Pi y Maragall;-3.6503544;40.4866354;IN_SERVICE    ;19;bicimad             
279;Paseo de los Melancólicos, 1;-3.7184816;40.4104448;IN_SERVICE    ;23;bicimad             
407;Carmen de Burgos, 4;-3.6847883;40.3575459;IN_SERVICE    ;23;bicimad             
276;Paseo de las Yeserías, 15;-3.7099166;40.39900539;IN_SERVICE    ;23;bicimad             
340;Illescas;-3.7656976;40.3970983;IN_SERVICE    ;27;bicimad             
342;Osa de la Vega;-3.773381;40.374979;IN_SERVICE    ;23;bicimad             
381;Alfredo Aleix;-3.7553916;40.3684767;IN_SERVICE    ;24;bicimad             
444;Valderrebollo, 18;-3.6276352;40.3743481;IN_SERVICE    ;23;bicimad             
448;Metro Las Suertes;-3.599352;40.363376;IN_SERVICE    ;27;bicimad             
472;Metro Valdebernardo;-3.6211485;40.3987974;IN_SERVICE    ;27;bicimad             
473;Villablanca;-3.59888007;40.40500033;IN_SERVICE    ;27;bicimad             
474;Estación de tren de Vicálvaro;-3.596875;40.402255;IN_SERVICE    ;27;bicimad             
541;Metro Pinar del Rey;-3.6468591;40.4682706;IN_SERVICE    ;23;bicimad             
546;Andorra;-3.6467519;40.4628976;IN_SERVICE    ;23;bicimad             
550;Príncipe Carlos, 54;-3.656674;40.4941108;IN_SERVICE    ;23;bicimad             
553;María Portugal;-3.658921;40.499909;IN_SERVICE    ;23;bicimad             
601;Estación de tren de Fuencarral;-3.6824687;40.5015588;IN_SERVICE    ;24;bicimad             
603;Castiello de Jaca, 14;-3.6782027;40.5091982;IN_SERVICE    ;23;bicimad             
607;Metro Ligero;-3.6641571;40.5051915;IN_SERVICE    ;27;bicimad             
610;Bardegueral;-3.7719097;40.4501721;IN_SERVICE    ;24;bicimad             
237;Acueducto de Amaniel;-3.7102736;40.4516819;IN_SERVICE    ;24;bicimad             
262;María de las Mercedes de Borbón B;-3.620114;40.4928683;IN_SERVICE    ;23;bicimad             
611;María de las Mercedes de Borbón A;-3.612106853;40.4909083;IN_SERVICE    ;23;bicimad             
176;Plaza de la Beata María Ana de Jesús;-3.6939412;40.3941856;IN_SERVICE    ;23;bicimad             
630;Calle de Febrero 4;-3.573031;40.446868;IN_SERVICE    ;23;bicimad             
629;Avda de Fermina Sevillano 23;-3.568829;40.44477;IN_SERVICE    ;23;bicimad             
620;Calle Cazorla 79;-3.665886;40.376297;IN_SERVICE    ;23;bicimad             
621;Calle Montiel 27;-3.672609;40.381382;IN_SERVICE    ;23;bicimad             
622;Calle Sierra de Albarracin 2;-3.671961;40.386022;IN_SERVICE    ;23;bicimad             
617;Calle Eduardo Barreiros;-3.70238;40.358866;IN_SERVICE    ;23;bicimad             
626;Avenida Victoria Kent 9;-3.564012;40.401326;IN_SERVICE    ;23;bicimad             
627;Alcalde Andrés Madrid Dávila 92;-3.548534;40.398303;IN_SERVICE    ;23;bicimad             
624 ;Avenida Blas de Lezo 33;-3.553002;40.407067;IN_SERVICE    ;23;bicimad             
625;Avenida de Miguel Delibes 49;-3.560344;40.405505;IN_SERVICE    ;23;bicimad             
612;Calle Rosalia de Castro 1;-3.734639;40.480258;IN_SERVICE    ;23;bicimad             
613;Facultad de informática;-3.734813;40.453109;IN_SERVICE    ;23;bicimad             
615;Avenida Juan de Andrés 21;-3.722789;40.468732;IN_SERVICE    ;23;bicimad             
616;Alcalde Martín de Alzaga;-3.717195;40.462899;IN_SERVICE    ;23;bicimad             
628 ;Calle Arcaute 13;-3.576652;40.44358;IN_SERVICE    ;23;bicimad             
619;Cooperativa Electrica 13;-3.659633;40.374387;IN_SERVICE    ;23;bicimad             
623 ; Ronda del Sur, esq Santa Rafaela;-3.673105;40.37773;IN_SERVICE    ;23;bicimad             
614;Biblioteca central de la UNED;-3.7344823;40.4356759;IN_SERVICE    ;23;bicimad             
618;Calle Paterna 55;-3.68482;40.340613;IN_SERVICE    ;19;bicimad             
632;Avda. Campus Sur, 11;-3.63128545;40.38616403;IN_SERVICE    ;23;bicimad             
631; CAMPUS SUR 2;-3.624811621;40.38340792;IN_SERVICE    ;19;bicimad             
22;Jacometrezo 3;-3.706494;40.420172;IN_SERVICE    ;12;bicimad             
8000;EV Puente de Vallecas ;-3.669224;40.397661;IN_SERVICE    ;23;bicimad             
8001;EV JMD Carabanchel;-3.7413485;40.3798462;IN_SERVICE    ;23;bicimad             
