original_id,name,lat,lon,layer,type,node_id
4514                                              ,Cristo Rey                                                                                                                                                                                              ,40.4402582,-3.7166546,bus,stop,1
4022                                              ,Junta Municipal Moncloa                                                                                                                                                                                 ,40.4376245,-3.7171454,bus,stop,2
3687                                              ,Moncloa                                                                                                                                                                                                 ,40.4359239,-3.716809,bus,stop,3
737                                               ,Altamirano                                                                                                                                                                                              ,40.4339902,-3.7162815,bus,stop,4
735                                               ,Argüelles                                                                                                                                                                                               ,40.4319363,-3.7147978,bus,stop,5
193                                               ,Princesa-Rey Francisco                                                                                                                                                                                  ,40.4297747,-3.7132541,bus,stop,6
173                                               ,Ventura Rodríguez                                                                                                                                                                                       ,40.4278464,-3.7118545,bus,stop,7
741                                               ,Plaza de España                                                                                                                                                                                         ,40.4264877,-3.7108528,bus,stop,8
171                                               ,Gran Vía-Plaza de España                                                                                                                                                                                ,40.4248354,-3.7092411,bus,stop,9
169                                               ,Santo Domingo                                                                                                                                                                                           ,40.4229262,-3.7061797,bus,stop,10
723                                               ,Gran Vía-Callao                                                                                                                                                                                         ,40.4219545,-3.7030167,bus,stop,11
724                                               ,Gran Vía-Montera                                                                                                                                                                                        ,40.4217848,-3.6998056,bus,stop,12
5138                                              ,Gran Vía-Pedro Zerolo                                                                                                                                                                                   ,40.4213988,-3.6980773,bus,stop,13
164                                               ,Gran Vía-Alcalá                                                                                                                                                                                         ,40.4207455,-3.6958711,bus,stop,14
70                                                ,Cibeles                                                                                                                                                                                                 ,40.4209393,-3.6920981,bus,stop,15
162                                               ,Puerta de Alcalá-Retiro                                                                                                                                                                                 ,40.4214833,-3.6869844,bus,stop,16
423                                               ,Velázquez-Villanueva                                                                                                                                                                                    ,40.4239938,-3.6829327,bus,stop,17
424                                               ,Velázquez-Goya                                                                                                                                                                                          ,40.4267156,-3.682748,bus,stop,18
425                                               ,Velázquez-Ayala                                                                                                                                                                                         ,40.4294377,-3.6825162,bus,stop,19
426                                               ,Velázquez-Ortega y Gasset                                                                                                                                                                               ,40.4319079,-3.6822346,bus,stop,20
731                                               ,Marqués de Salamanca                                                                                                                                                                                    ,40.4319159,-3.6793345,bus,stop,21
729                                               ,Lista                                                                                                                                                                                                   ,40.4317089,-3.6746873,bus,stop,22
727                                               ,Parque Eva Duarte                                                                                                                                                                                       ,40.4314817,-3.6696052,bus,stop,23
726                                               ,Cartagena-Francisco Silvela                                                                                                                                                                             ,40.4329211,-3.6691818,bus,stop,24
2304                                              ,Plaza San Cayetano                                                                                                                                                                                      ,40.4362828,-3.6689557,bus,stop,25
721                                               ,Cartagena-Béjar                                                                                                                                                                                         ,40.4391074,-3.6696794,bus,stop,26
717                                               ,Cartagena                                                                                                                                                                                               ,40.4414793,-3.6723556,bus,stop,27
715                                               ,Cartagena-López de Hoyos                                                                                                                                                                                ,40.444396,-3.6742717,bus,stop,28
745                                               ,Auditorio Nacional                                                                                                                                                                                      ,40.4467697,-3.6750855,bus,stop,29
273                                               ,Prosperidad                                                                                                                                                                                             ,40.4455845,-3.6736203,bus,stop,30
716                                               ,Cartagena-López de Hoyos                                                                                                                                                                                ,40.4443584,-3.6745426,bus,stop,31
718                                               ,Cartagena                                                                                                                                                                                               ,40.4414469,-3.6725023,bus,stop,32
722                                               ,Cartagena-Béjar                                                                                                                                                                                         ,40.4390164,-3.6698318,bus,stop,33
2307                                              ,Plaza San Cayetano                                                                                                                                                                                      ,40.4357854,-3.6692691,bus,stop,34
725                                               ,Centro Cultural Buenavista                                                                                                                                                                              ,40.433864,-3.6697099,bus,stop,35
728                                               ,Parque Eva Duarte                                                                                                                                                                                       ,40.4316467,-3.669885,bus,stop,36
730                                               ,Lista                                                                                                                                                                                                   ,40.4319433,-3.6746661,bus,stop,37
732                                               ,Marqués de Salamanca                                                                                                                                                                                    ,40.4321679,-3.6793794,bus,stop,38
733                                               ,Ortega y Gasset-Claudio Coello                                                                                                                                                                          ,40.4324332,-3.6848101,bus,stop,39
449                                               ,Serrano-Ortega y Gasset                                                                                                                                                                                 ,40.4314533,-3.6859791,bus,stop,40
451                                               ,Metro Serrano                                                                                                                                                                                           ,40.4279358,-3.6866389,bus,stop,41
452                                               ,Museo Arqueológico                                                                                                                                                                                      ,40.4248787,-3.6871619,bus,stop,42
161                                               ,Puerta de Alcalá                                                                                                                                                                                        ,40.4224688,-3.6879154,bus,stop,43
69                                                ,Cibeles                                                                                                                                                                                                 ,40.421578,-3.692256,bus,stop,44
5135                                              ,Círculo de Bellas Artes                                                                                                                                                                                 ,40.4209039,-3.694989,bus,stop,45
5137                                              ,Gran Vía-Pedro Zerolo                                                                                                                                                                                   ,40.4216551,-3.6981595,bus,stop,46
4094                                              ,Gran Vía-Montera                                                                                                                                                                                        ,40.4220407,-3.7006957,bus,stop,47
9                                                 ,Gran Vía-Callao                                                                                                                                                                                         ,40.4222286,-3.7031208,bus,stop,48
168                                               ,Santo Domingo                                                                                                                                                                                           ,40.4233712,-3.7063343,bus,stop,49
283                                               ,Gran Vía-Plaza de España                                                                                                                                                                                ,40.4251869,-3.7092138,bus,stop,50
1750                                              ,Plaza de España                                                                                                                                                                                         ,40.4265752,-3.7105325,bus,stop,51
172                                               ,Ventura Rodríguez                                                                                                                                                                                       ,40.4277772,-3.7113822,bus,stop,52
734                                               ,Princesa-Rey Francisco                                                                                                                                                                                  ,40.4301267,-3.7131439999999998,bus,stop,53
736                                               ,Argüelles                                                                                                                                                                                               ,40.4320553,-3.7144981,bus,stop,54
738                                               ,Altamirano                                                                                                                                                                                              ,40.4340466,-3.7159049,bus,stop,55
4816                                              ,Moncloa                                                                                                                                                                                                 ,40.435643,-3.7170654,bus,stop,56
4021                                              ,Junta Municipal Moncloa                                                                                                                                                                                 ,40.4375905,-3.7168149,bus,stop,57
743                                               ,Cristo Rey                                                                                                                                                                                              ,40.4404672,-3.7163518,bus,stop,58
3811                                              ,Manuel Becerra                                                                                                                                                                                          ,40.429383,-3.6672048,bus,stop,59
148                                               ,Doctor Esquerdo-Goya                                                                                                                                                                                    ,40.4270381,-3.6676381,bus,stop,60
150                                               ,O'Donnell                                                                                                                                                                                               ,40.4238113,-3.6679127,bus,stop,61
1256                                              ,Hospital Gregorio Marañón                                                                                                                                                                               ,40.420215,-3.6682072,bus,stop,62
199                                               ,Ibiza-Maiquez                                                                                                                                                                                           ,40.4201329,-3.6714833,bus,stop,63
2157                                              ,Narváez-Ibiza                                                                                                                                                                                           ,40.4204694,-3.6748056,bus,stop,64
156                                               ,O Donnell-Narváez                                                                                                                                                                                       ,40.4235532,-3.6751127,bus,stop,65
158                                               ,O Donnell-Retiro                                                                                                                                                                                        ,40.4235477,-3.6791324,bus,stop,66
175                                               ,Mártires de Alcalá                                                                                                                                                                                      ,40.4295913,-3.7123091,bus,stop,67
176                                               ,Argüelles                                                                                                                                                                                               ,40.4323235,-3.7104515,bus,stop,68
177                                               ,Blasco de Garay-Centro Mayores                                                                                                                                                                          ,40.4357935,-3.7101933,bus,stop,69
4477                                              ,Galileo                                                                                                                                                                                                 ,40.4369981,-3.7091566,bus,stop,70
4478                                              ,Vallehermoso-Donoso Cortés                                                                                                                                                                              ,40.4378754,-3.7071261,bus,stop,71
4479                                              ,Vallehermoso-Cea Bermúdez                                                                                                                                                                               ,40.4398673,-3.7069819,bus,stop,72
180                                               ,Vallehermoso-Islas Filipinas                                                                                                                                                                            ,40.4422966,-3.706759,bus,stop,73
181                                               ,Estadio Vallehermoso                                                                                                                                                                                    ,40.4443703,-3.7087013,bus,stop,74
182                                               ,Melquíades Álvarez                                                                                                                                                                                      ,40.4432203,-3.7111087,bus,stop,75
183                                               ,General Ampudia                                                                                                                                                                                         ,40.444213,-3.7137561,bus,stop,76
184                                               ,Avenida del Valle                                                                                                                                                                                       ,40.4454289,-3.7138054,bus,stop,77
185                                               ,Metro Guzmán el Bueno                                                                                                                                                                                   ,40.447637,-3.7129337,bus,stop,78
186                                               ,Reina Victoria                                                                                                                                                                                          ,40.4476976,-3.7111363,bus,stop,79
187                                               ,Guzmán el Bueno-San Francisco de Sales                                                                                                                                                                  ,40.4447502,-3.7113768,bus,stop,80
188                                               ,Melquíades Álvarez                                                                                                                                                                                      ,40.4434248,-3.7115471,bus,stop,81
189                                               ,Metro Islas Filipinas                                                                                                                                                                                   ,40.4405948,-3.7117413,bus,stop,82
190                                               ,Guzmán El Bueno-Fernández de los Ríos                                                                                                                                                                   ,40.4376926,-3.7119546,bus,stop,83
191                                               ,Guzmán El Bueno-Meléndez Valdés                                                                                                                                                                         ,40.4353896,-3.7121448,bus,stop,84
192                                               ,Argüelles                                                                                                                                                                                               ,40.4328434,-3.7123434,bus,stop,85
174                                               ,Alcalá-Retiro                                                                                                                                                                                           ,40.4223087,-3.6845173,bus,stop,86
3686                                              ,O Donnell-Retiro                                                                                                                                                                                        ,40.423445,-3.6782119,bus,stop,87
157                                               ,O Donnell-Narváez                                                                                                                                                                                       ,40.4233006,-3.6751809,bus,stop,88
2156                                              ,Narváez-Ibiza                                                                                                                                                                                           ,40.4204088,-3.6751638,bus,stop,89
2158                                              ,Sainz de Baranda-Narváez                                                                                                                                                                                ,40.4186611,-3.6743768,bus,stop,90
2160                                              ,Sainz de Baranda-Maiquez                                                                                                                                                                                ,40.4185056,-3.6716933,bus,stop,91
2162                                              ,Metro Sainz de Baranda                                                                                                                                                                                  ,40.4182849,-3.6685771,bus,stop,92
1257                                              ,Hospital Gregorio Marañón                                                                                                                                                                               ,40.4201183,-3.6677819,bus,stop,93
5822                                              ,Doctor Esquerdo-O Donnell                                                                                                                                                                               ,40.4222726,-3.6675921,bus,stop,94
151                                               ,O'Donnell                                                                                                                                                                                               ,40.4245528,-3.6674367,bus,stop,95
149                                               ,Doctor Esquerdo-Goya                                                                                                                                                                                    ,40.4266756,-3.6672293,bus,stop,96
5070                                              ,Puerta de Toledo                                                                                                                                                                                        ,40.409351,-3.7111001,bus,stop,97
1884                                              ,Puerta de Toledo                                                                                                                                                                                        ,40.4095462,-3.7108484,bus,stop,98
1882                                              ,La Paloma                                                                                                                                                                                               ,40.4108775,-3.7119073,bus,stop,99
1880                                              ,San Francisco El Grande                                                                                                                                                                                 ,40.4127707,-3.7124381,bus,stop,100
1878                                              ,Las Vistillas                                                                                                                                                                                           ,40.4139327,-3.7124621,bus,stop,101
1876                                              ,Palacio Real                                                                                                                                                                                            ,40.4165833,-3.7121365,bus,stop,102
855                                               ,Plaza de España                                                                                                                                                                                         ,40.4245841,-3.7105477,bus,stop,103
4108                                              ,Gran Vía-Pedro Zerolo                                                                                                                                                                                   ,40.42181,-3.6986102,bus,stop,104
5376                                              ,Hortaleza                                                                                                                                                                                               ,40.4230595,-3.6990729,bus,stop,105
278                                               ,Chueca                                                                                                                                                                                                  ,40.4254028,-3.6974228,bus,stop,106
5639                                              ,Santa Bárbara                                                                                                                                                                                           ,40.428167,-3.6954384,bus,stop,107
1865                                              ,Alonso Martínez                                                                                                                                                                                         ,40.4301867,-3.6944192,bus,stop,108
4675                                              ,Santa Engracia-Caracas                                                                                                                                                                                  ,40.432595,-3.6954343,bus,stop,109
1868                                              ,Plaza Chamberí                                                                                                                                                                                          ,40.4345353,-3.6963621,bus,stop,110
1869                                              ,Iglesia                                                                                                                                                                                                 ,40.4364765,-3.6971485,bus,stop,111
1870                                              ,Santa Engracia-García de Paredes                                                                                                                                                                        ,40.4381747,-3.6978971,bus,stop,112
1397                                              ,Santa Engracia-Bretón de los Herreros                                                                                                                                                                   ,40.4413557,-3.6992506,bus,stop,113
1398                                              ,Metro Ríos Rosas                                                                                                                                                                                        ,40.4436471,-3.7002295,bus,stop,114
1399                                              ,Santa Engracia-María de Guzmán                                                                                                                                                                          ,40.4459832,-3.7012678,bus,stop,115
1420                                              ,Cuatro Caminos                                                                                                                                                                                          ,40.447843,-3.7021008,bus,stop,116
1568                                              ,Alvarado                                                                                                                                                                                                ,40.4510764,-3.7022288,bus,stop,117
1569                                              ,Teruel                                                                                                                                                                                                  ,40.4534302,-3.7018288,bus,stop,118
1860                                              ,Estrecho                                                                                                                                                                                                ,40.4545692,-3.701192,bus,stop,119
1861                                              ,General Perón-Aviador Zorita                                                                                                                                                                            ,40.4542336,-3.6971024,bus,stop,120
1855                                              ,San Amaro                                                                                                                                                                                               ,40.456841,-3.695724,bus,stop,121
1856                                              ,General Cabrera                                                                                                                                                                                         ,40.4581317,-3.6945653,bus,stop,122
1857                                              ,Infanta Mercedes                                                                                                                                                                                        ,40.4586431,-3.6964105,bus,stop,123
1858                                              ,Bravo Murillo-Lope de Haro                                                                                                                                                                              ,40.4584715,-3.7009569,bus,stop,124
1859                                              ,Estrecho                                                                                                                                                                                                ,40.4564488,-3.7017305,bus,stop,125
1570                                              ,Teruel                                                                                                                                                                                                  ,40.4532024,-3.702251,bus,stop,126
1600                                              ,Alvarado                                                                                                                                                                                                ,40.4508669,-3.702604,bus,stop,127
1419                                              ,Cuatro Caminos                                                                                                                                                                                          ,40.4474871,-3.7028367,bus,stop,128
1382                                              ,Bravo Murillo-Cristóbal Bordiú                                                                                                                                                                          ,40.4452791,-3.7029703,bus,stop,129
4496                                              ,Juan Zorrilla                                                                                                                                                                                           ,40.4435719,-3.7029702,bus,stop,130
807                                               ,Canal                                                                                                                                                                                                   ,40.4403905,-3.702436,bus,stop,131
1862                                              ,Glorieta Álvarez de Castro                                                                                                                                                                              ,40.4384045,-3.7016135,bus,stop,132
1386                                              ,Álvarez de Castro-Eloy Gonzalo                                                                                                                                                                          ,40.4363197,-3.7007312,bus,stop,133
538                                               ,Quevedo                                                                                                                                                                                                 ,40.4359166,-3.7018471,bus,stop,134
3379                                              ,Quevedo                                                                                                                                                                                                 ,40.434802,-3.7029113,bus,stop,135
3377                                              ,Fuencarral-Alburquerque                                                                                                                                                                                 ,40.4333778,-3.7023015,bus,stop,136
3375                                              ,Fuencarral-Bilbao                                                                                                                                                                                       ,40.4313472,-3.7014105,bus,stop,137
3493                                              ,Carranza                                                                                                                                                                                                ,40.431491,-3.7036756,bus,stop,138
1772                                              ,Metro San Bernardo                                                                                                                                                                                      ,40.4311591,-3.7049336,bus,stop,139
1770                                              ,San Bernardo-Dos de Mayo                                                                                                                                                                                ,40.4289944,-3.7053472,bus,stop,140
1768                                              ,Noviciado                                                                                                                                                                                               ,40.426917,-3.7062214,bus,stop,141
1766                                              ,Santo Domingo                                                                                                                                                                                           ,40.4239643,-3.7065877,bus,stop,142
170                                               ,Gran Vía-Plaza de España                                                                                                                                                                                ,40.4247773,-3.7084271,bus,stop,143
854                                               ,Plaza de España                                                                                                                                                                                         ,40.4248172,-3.710738,bus,stop,144
1875                                              ,Palacio Real                                                                                                                                                                                            ,40.4167167,-3.7124208,bus,stop,145
1877                                              ,Las Vistillas                                                                                                                                                                                           ,40.4139494,-3.7126745,bus,stop,146
1879                                              ,San Francisco El Grande                                                                                                                                                                                 ,40.4118411,-3.7127112,bus,stop,147
1881                                              ,La Paloma                                                                                                                                                                                               ,40.4107367,-3.7120984,bus,stop,148
1199                                              ,Ciudad Lineal                                                                                                                                                                                           ,40.4399835,-3.6374076,bus,stop,149
240                                               ,Vital Aza-Albasanz                                                                                                                                                                                      ,40.4367455,-3.6348151,bus,stop,150
242                                               ,Ascao-Julián Camarillo                                                                                                                                                                                  ,40.4344031,-3.6331896,bus,stop,151
244                                               ,Metro García Noblejas                                                                                                                                                                                   ,40.4312717,-3.6308495,bus,stop,152
246                                               ,Castillo de Arévalo                                                                                                                                                                                     ,40.4295578,-3.6296074,bus,stop,153
4708                                              ,Hermanos García Noblejas-Gandhi                                                                                                                                                                         ,40.4277454,-3.6282374,bus,stop,154
250                                               ,Hermanos García Noblejas-Centro de Salud                                                                                                                                                                ,40.4255552,-3.6267644,bus,stop,155
1200                                              ,Pobladura del Valle-Arcos de Jalón                                                                                                                                                                      ,40.4239297,-3.6241442,bus,stop,156
1202                                              ,Arcos de Jalón-San Román del Valle                                                                                                                                                                      ,40.4224171,-3.6206291,bus,stop,157
1204                                              ,Arcos de Jalón-Amposta                                                                                                                                                                                  ,40.4245444,-3.6170415,bus,stop,158
1206                                              ,Arcos de Jalón-Albericia                                                                                                                                                                                ,40.4262244,-3.6145458,bus,stop,159
5650                                              ,Arcos de Jalón-Avenida de Canillejas                                                                                                                                                                    ,40.428952,-3.61156,bus,stop,160
4195                                              ,Avenida de Canillejas-Rusia                                                                                                                                                                             ,40.4257239,-3.6103799,bus,stop,161
4197                                              ,Avenida de Canillejas-Aquitania                                                                                                                                                                         ,40.4234456,-3.6102061,bus,stop,162
1210                                              ,Avenida de Canillejas-Toscana                                                                                                                                                                           ,40.421321,-3.609904,bus,stop,163
4612                                              ,Avenida de Canillejas-M40                                                                                                                                                                               ,40.4186653,-3.6095264,bus,stop,164
3758                                              ,Plaza de la Vicalvarada                                                                                                                                                                                 ,40.4111641,-3.608893,bus,stop,165
1213                                              ,Artilleros-Calahorra                                                                                                                                                                                    ,40.4100043,-3.6084464,bus,stop,166
1076                                              ,Calahorra                                                                                                                                                                                               ,40.4096453,-3.6099031,bus,stop,167
1066                                              ,Avenida de Daroca-Calahorra                                                                                                                                                                             ,40.4081036,-3.6118235,bus,stop,168
1067                                              ,Avenida de Daroca-Campus Universitario                                                                                                                                                                  ,40.4062171,-3.6090959,bus,stop,169
4546                                              ,Metro Vicálvaro                                                                                                                                                                                         ,40.4059298,-3.6071959,bus,stop,170
4552                                              ,San Cipriano                                                                                                                                                                                            ,40.4057521,-3.6032816,bus,stop,171
4555                                              ,San Cipriano-Forges                                                                                                                                                                                     ,40.4056571,-3.600747,bus,stop,172
5321                                              ,San Cipriano-Minerva                                                                                                                                                                                    ,40.4051444,-3.5979873000000002,bus,stop,173
1073                                              ,Puerta Arganda                                                                                                                                                                                          ,40.403102,-3.5948437,bus,stop,174
5322                                              ,San Cipriano-Minerva                                                                                                                                                                                    ,40.4053116,-3.5978912,bus,stop,175
4556                                              ,San Cipriano-Forges                                                                                                                                                                                     ,40.4058995,-3.6009259,bus,stop,176
1069                                              ,San Cipriano                                                                                                                                                                                            ,40.4060127,-3.60339,bus,stop,177
1074                                              ,Metro Vicálvaro                                                                                                                                                                                         ,40.4061999,-3.6072219,bus,stop,178
4647                                              ,Avenida de Daroca-Campus Universitario                                                                                                                                                                  ,40.4064868,-3.6092044,bus,stop,179
4549                                              ,Avenida de Daroca-Calahorra                                                                                                                                                                             ,40.4084458,-3.6118384,bus,stop,180
1065                                              ,Avenida de Daroca-Casalarreina                                                                                                                                                                          ,40.4096089,-3.6133811,bus,stop,181
1214                                              ,Casalarreina-Daroca                                                                                                                                                                                     ,40.4105321,-3.6125645,bus,stop,182
1215                                              ,Plaza de la Vicalvarada                                                                                                                                                                                 ,40.4111883,-3.6094353,bus,stop,183
4613                                              ,Avenida de Canillejas-M40                                                                                                                                                                               ,40.4187294,-3.6093383,bus,stop,184
1211                                              ,Avenida de Canillejas-Toscana                                                                                                                                                                           ,40.4214127,-3.6096101,bus,stop,185
4611                                              ,Avenida de Canillejas-Suecia                                                                                                                                                                            ,40.4235373,-3.6098886,bus,stop,186
4196                                              ,Avenida de Canillejas-Rusia                                                                                                                                                                             ,40.4257886,-3.6100858,bus,stop,187
4192                                              ,Arcos de Jalón-Avenida de Canillejas                                                                                                                                                                    ,40.4290684,-3.6116952,bus,stop,188
1207                                              ,Arcos de Jalón-Albericia                                                                                                                                                                                ,40.4264036,-3.6147361,bus,stop,189
1205                                              ,Arcos de Jalón-Amposta                                                                                                                                                                                  ,40.424615,-3.617325,bus,stop,190
1203                                              ,Arcos de Jalón-San Román del Valle                                                                                                                                                                      ,40.422651,-3.6206902,bus,stop,191
1201                                              ,Pobladura del Valle-Arcos de Jalón                                                                                                                                                                      ,40.4240217,-3.6238031,bus,stop,192
252                                               ,Hermanos García Noblejas-Centro de Salud                                                                                                                                                                ,40.4257741,-3.6262714,bus,stop,193
248                                               ,Hermanos García Noblejas-Gandhi                                                                                                                                                                         ,40.4282589,-3.6282514,bus,stop,194
247                                               ,Castillo de Arévalo                                                                                                                                                                                     ,40.4299009,-3.6294574,bus,stop,195
245                                               ,Metro García Noblejas                                                                                                                                                                                   ,40.4313106,-3.6303312,bus,stop,196
243                                               ,Ascao-Julián Camarillo                                                                                                                                                                                  ,40.4343527,-3.6325171,bus,stop,197
241                                               ,Vital Aza-Albasanz                                                                                                                                                                                      ,40.4369096,-3.6344747,bus,stop,198
239                                               ,Ciudad Lineal                                                                                                                                                                                           ,40.4392608,-3.6361358,bus,stop,199
5907                                              ,Sol-Sevilla                                                                                                                                                                                             ,40.4197915,-3.6972105,bus,stop,200
5239                                              ,Círculo de Bellas Artes                                                                                                                                                                                 ,40.4203477,-3.695352,bus,stop,201
72                                                ,Cibeles-Casa de América                                                                                                                                                                                 ,40.4221448,-3.6908686,bus,stop,202
65                                                ,Biblioteca Nacional                                                                                                                                                                                     ,40.4256681,-3.6892447,bus,stop,203
66                                                ,Colón                                                                                                                                                                                                   ,40.4279152,-3.6885975,bus,stop,204
62                                                ,Castellana-Ministerio Interior                                                                                                                                                                          ,40.4310461,-3.687795,bus,stop,205
60                                                ,Castellana-Rubén Darío                                                                                                                                                                                  ,40.435034,-3.6867999,bus,stop,206
530                                               ,Emilio Castelar                                                                                                                                                                                         ,40.437171,-3.6887472,bus,stop,207
1893                                              ,Museo Sorolla                                                                                                                                                                                           ,40.4371331,-3.6913308,bus,stop,208
528                                               ,Martínez Campos                                                                                                                                                                                         ,40.4370812,-3.6939831,bus,stop,209
1895                                              ,Iglesia-Alonso Cano                                                                                                                                                                                     ,40.4369943,-3.6964464,bus,stop,210
1896                                              ,Alonso Cano                                                                                                                                                                                             ,40.4406071,-3.696413,bus,stop,211
1898                                              ,Alonso Cano-Ríos Rosas                                                                                                                                                                                  ,40.4433562,-3.6961819,bus,stop,212
1900                                              ,Alonso Cano-María de Guzmán                                                                                                                                                                             ,40.4461052,-3.6959745,bus,stop,213
1902                                              ,Alonso Cano-Fernández Villaverde                                                                                                                                                                        ,40.4479891,-3.6958052,bus,stop,214
3380                                              ,Hernani                                                                                                                                                                                                 ,40.4495529,-3.6956946,bus,stop,215
1904                                              ,Basílica                                                                                                                                                                                                ,40.4508106,-3.6955277,bus,stop,216
1906                                              ,Edgar Neville                                                                                                                                                                                           ,40.4538528,-3.695251,bus,stop,217
1909                                              ,Julián Besteiro-Fortunata y Jacinta                                                                                                                                                                     ,40.4562157,-3.6940738,bus,stop,218
1910                                              ,Julián Besteiro-San Germán                                                                                                                                                                              ,40.4578563,-3.6939138,bus,stop,219
1912                                              ,Joan Maragall-San Germán                                                                                                                                                                                ,40.4580613,-3.6912773,bus,stop,220
5372                                              ,Castellana-Profesor Waksman                                                                                                                                                                             ,40.4581393,-3.6887755,bus,stop,221
35                                                ,Cuzco                                                                                                                                                                                                   ,40.4616773,-3.6884449,bus,stop,222
33                                                ,Castellana-Rosario Pino                                                                                                                                                                                 ,40.4636334,-3.6882581,bus,stop,223
29                                                ,Juzgados Plaza Castilla                                                                                                                                                                                 ,40.4669102,-3.6879193,bus,stop,224
30                                                ,Plaza Castilla                                                                                                                                                                                          ,40.4680246,-3.6868583,bus,stop,225
1914                                              ,Enrique Larreta                                                                                                                                                                                         ,40.4700884,-3.6852079,bus,stop,226
1915                                              ,Agustín de Foxá                                                                                                                                                                                         ,40.4717507,-3.6844308,bus,stop,227
1917                                              ,Chamartín                                                                                                                                                                                               ,40.4735857,-3.6810862,bus,stop,228
1916                                              ,Agustín de Foxá                                                                                                                                                                                         ,40.4720117,-3.6844688,bus,stop,229
4194                                              ,Enrique Larreta                                                                                                                                                                                         ,40.4701537,-3.6855957,bus,stop,230
31                                                ,Plaza Castilla                                                                                                                                                                                          ,40.4682487,-3.6870493,bus,stop,231
28                                                ,Juzgados Plaza Castilla                                                                                                                                                                                 ,40.4668439,-3.6884505,bus,stop,232
32                                                ,Castellana-Rosario Pino                                                                                                                                                                                 ,40.4636577,-3.6887165,bus,stop,233
34                                                ,Cuzco                                                                                                                                                                                                   ,40.4601107,-3.6890423,bus,stop,234
36                                                ,Castellana-San Germán                                                                                                                                                                                   ,40.4583935,-3.6892105,bus,stop,235
1913                                              ,Joan Maragall-San Germán                                                                                                                                                                                ,40.458254,-3.6914499,bus,stop,236
1911                                              ,Orense-San Germán                                                                                                                                                                                       ,40.4579894,-3.6935042,bus,stop,237
1908                                              ,Palacio de Congresos                                                                                                                                                                                    ,40.4553976,-3.6937941,bus,stop,238
1907                                              ,Orense-General Perón                                                                                                                                                                                    ,40.4539103,-3.6939322,bus,stop,239
1905                                              ,Basílica                                                                                                                                                                                                ,40.4516388,-3.6941447,bus,stop,240
1903                                              ,Nuevos Ministerios                                                                                                                                                                                      ,40.4490699,-3.6943548,bus,stop,241
1901                                              ,Modesto Lafuente-María de Guzmán                                                                                                                                                                        ,40.4461133,-3.694642,bus,stop,242
1899                                              ,Modesto Lafuente-Ríos Rosas                                                                                                                                                                             ,40.4433282,-3.6948492,bus,stop,243
1897                                              ,Modesto Lafuente-Jose Abascal                                                                                                                                                                           ,40.4404978,-3.6951148,bus,stop,244
527                                               ,Martínez Campos                                                                                                                                                                                         ,40.4368061,-3.694782,bus,stop,245
1894                                              ,Museo Sorolla                                                                                                                                                                                           ,40.4369078,-3.6913403,bus,stop,246
57                                                ,Emilio Castelar                                                                                                                                                                                         ,40.4367972,-3.6879877,bus,stop,247
59                                                ,Castellana-Rubén Darío                                                                                                                                                                                  ,40.4348044,-3.6875341,bus,stop,248
61                                                ,Castellana-Ministerio Interior                                                                                                                                                                          ,40.4309562,-3.6885221,bus,stop,249
63                                                ,Colón                                                                                                                                                                                                   ,40.42769,-3.6893486,bus,stop,250
5626                                              ,Biblioteca Nacional                                                                                                                                                                                     ,40.4259221,-3.6896978,bus,stop,251
68                                                ,Recoletos                                                                                                                                                                                               ,40.4246801,-3.6902425,bus,stop,252
73                                                ,Cibeles                                                                                                                                                                                                 ,40.4220193,-3.69153,bus,stop,253
3689                                              ,Sevilla                                                                                                                                                                                                 ,40.4203797,-3.6967701,bus,stop,254
1918                                              ,Benavente                                                                                                                                                                                               ,40.4162689,-3.7024149,bus,stop,255
51230                                             ,Tirso de Molina                                                                                                                                                                                         ,40.4142482,-3.7021162,bus,stop,256
1921                                              ,Antón Martín                                                                                                                                                                                            ,40.4140055,-3.6975648,bus,stop,257
1922                                              ,Desamparados                                                                                                                                                                                            ,40.4129817,-3.6955388,bus,stop,258
1924                                              ,Prado-Atocha                                                                                                                                                                                            ,40.4113182,-3.6919976,bus,stop,259
1167                                              ,Museo Reina Sofía                                                                                                                                                                                       ,40.4093843,-3.6922426,bus,stop,260
1926                                              ,Palos de la Frontera                                                                                                                                                                                    ,40.4054933,-3.6958388,bus,stop,261
1927                                              ,Santa María de la Cabeza                                                                                                                                                                                ,40.4034008,-3.6977315,bus,stop,262
1928                                              ,Santa María de la Cabeza                                                                                                                                                                                ,40.4020896,-3.697799,bus,stop,263
1931                                              ,Jaime El Conquistador-Embajadores                                                                                                                                                                       ,40.3996449,-3.6968425,bus,stop,264
1933                                              ,Jaime El Conquistador                                                                                                                                                                                   ,40.3976385,-3.6971602,bus,stop,265
1122                                              ,Casa del Reloj                                                                                                                                                                                          ,40.3951616,-3.6970522,bus,stop,266
1124                                              ,Legazpi-Matadero                                                                                                                                                                                        ,40.393491,-3.6947137,bus,stop,267
1935                                              ,Glorieta de Cádiz                                                                                                                                                                                       ,40.3899543,-3.6985537,bus,stop,268
1938                                              ,San Antonio de Padua                                                                                                                                                                                    ,40.3877559,-3.7000744,bus,stop,269
1939                                              ,Santuario                                                                                                                                                                                               ,40.387058,-3.6992896,bus,stop,270
1941                                              ,Evangelios                                                                                                                                                                                              ,40.3851875,-3.6987283,bus,stop,271
1943                                              ,Dolores Barranco                                                                                                                                                                                        ,40.3854171,-3.7024654,bus,stop,272
1945                                              ,Plaza del Hidrógeno                                                                                                                                                                                     ,40.3851732,-3.7055379,bus,stop,273
1947                                              ,Junta Municipal Usera                                                                                                                                                                                   ,40.3841993,-3.7100988,bus,stop,274
1949                                              ,Rafaela Ybarra-Marina Vega                                                                                                                                                                              ,40.3820725,-3.7102061,bus,stop,275
1951                                              ,Rafaela Ybarra-Pradolongo                                                                                                                                                                               ,40.380123,-3.7107824,bus,stop,276
1953                                              ,Polideportivo Orcasitas                                                                                                                                                                                 ,40.3776071,-3.7111605,bus,stop,277
1955                                              ,Rafaela Ybarra-Avenida de los Poblados                                                                                                                                                                  ,40.3757152,-3.7111524,bus,stop,278
1957                                              ,Rafaela Ybarra-Cestona                                                                                                                                                                                  ,40.3739672,-3.7112047,bus,stop,279
1958                                              ,Unidad                                                                                                                                                                                                  ,40.3719448,-3.7111794,bus,stop,280
1959                                              ,Rafaela Ybarra-Alzola                                                                                                                                                                                   ,40.3704898,-3.7111814,bus,stop,281
292                                               ,Rafaela Ybarra-Centro Comercial                                                                                                                                                                         ,40.3686791,-3.7111535,bus,stop,282
315                                               ,Gaínza                                                                                                                                                                                                  ,40.3676587,-3.7130115,bus,stop,283
332                                               ,Guetaria-Ordicia                                                                                                                                                                                        ,40.3683453,-3.7141491,bus,stop,284
5359                                              ,Orcasitas                                                                                                                                                                                               ,40.3707144,-3.7141977,bus,stop,285
1961                                              ,Guetaria-Leiza                                                                                                                                                                                          ,40.3732911,-3.7141958,bus,stop,286
1962                                              ,Guetaria-Tolosa                                                                                                                                                                                         ,40.3749126,-3.7142184,bus,stop,287
1963                                              ,Avenida de los Poblados-Rafaela Ybarra                                                                                                                                                                  ,40.3753405,-3.7120202,bus,stop,288
4814                                              ,Rafaela Ybarra-Avenida de los Poblados                                                                                                                                                                  ,40.375721,-3.7109467,bus,stop,289
4815                                              ,Polideportivo Orcasitas                                                                                                                                                                                 ,40.377862,-3.7107273,bus,stop,290
5288                                              ,Rafaela Ybarra-Parque de la Paloma                                                                                                                                                                      ,40.3796996,-3.7107742,bus,stop,291
1950                                              ,Rafaela Ybarra-Marina Vega                                                                                                                                                                              ,40.3817219,-3.7100846,bus,stop,292
1948                                              ,Junta Municipal Usera                                                                                                                                                                                   ,40.3837688,-3.7097762,bus,stop,293
1946                                              ,Plaza del Hidrógeno                                                                                                                                                                                     ,40.3848681,-3.7068071,bus,stop,294
1944                                              ,Dolores Barranco                                                                                                                                                                                        ,40.3851799,-3.7014615,bus,stop,295
1942                                              ,Evangelios                                                                                                                                                                                              ,40.3850516,-3.6988447,bus,stop,296
5358                                              ,Santuario                                                                                                                                                                                               ,40.3869263,-3.6987227,bus,stop,297
3912                                              ,Glorieta de Cádiz                                                                                                                                                                                       ,40.3894289,-3.6990332,bus,stop,298
1125                                              ,Legazpi-Matadero                                                                                                                                                                                        ,40.3938514,-3.6947056,bus,stop,299
1123                                              ,Casa del Reloj                                                                                                                                                                                          ,40.3951194,-3.6965811,bus,stop,300
1934                                              ,Jaime El Conquistador                                                                                                                                                                                   ,40.3976806,-3.6969062,bus,stop,301
1932                                              ,Jaime El Conquistador-Embajadores                                                                                                                                                                       ,40.3996326,-3.6966461,bus,stop,302
1929                                              ,Santa María de la Cabeza                                                                                                                                                                                ,40.4026996,-3.6974834,bus,stop,303
1930                                              ,Ferrocarril                                                                                                                                                                                             ,40.4025486,-3.6941351,bus,stop,304
1184                                              ,Metro Palos de la Frontera                                                                                                                                                                              ,40.4045689,-3.6922585,bus,stop,305
89                                                ,Delicias-Atocha                                                                                                                                                                                         ,40.408445,-3.6918853,bus,stop,306
1925                                              ,Prado-Atocha                                                                                                                                                                                            ,40.4115893,-3.691859,bus,stop,307
1923                                              ,Desamparados                                                                                                                                                                                            ,40.4130282,-3.6952899,bus,stop,308
1920                                              ,Antón Martín                                                                                                                                                                                            ,40.4147064,-3.6986082,bus,stop,309
491                                               ,Alonso Martínez                                                                                                                                                                                         ,40.4299425,-3.6938272,bus,stop,310
492                                               ,Almagro-Zurbano                                                                                                                                                                                         ,40.4322047,-3.6914137,bus,stop,311
494                                               ,Almagro-Rubén Darío                                                                                                                                                                                     ,40.4340677,-3.6902147,bus,stop,312
529                                               ,Miguel Ángel                                                                                                                                                                                            ,40.4369292,-3.6892654,bus,stop,313
58                                                ,Emilio Castelar                                                                                                                                                                                         ,40.4375799,-3.6874091,bus,stop,314
56                                                ,Gregorio Marañón                                                                                                                                                                                        ,40.4401778,-3.6891243,bus,stop,315
54                                                ,Museo Ciencias Naturales                                                                                                                                                                                ,40.4429513,-3.6900933,bus,stop,316
52                                                ,Nuevos Ministerios-Castellana                                                                                                                                                                           ,40.4455652,-3.6898728,bus,stop,317
421                                               ,Nuevos Ministerios-Joaquín Costa                                                                                                                                                                        ,40.4478506,-3.6888463,bus,stop,318
420                                               ,República Argentina                                                                                                                                                                                     ,40.4474233,-3.6849622,bus,stop,319
5318                                              ,Doctor Arce                                                                                                                                                                                             ,40.4476775,-3.6815804,bus,stop,320
416                                               ,Santa Gema                                                                                                                                                                                              ,40.4492412,-3.6791787,bus,stop,321
433                                               ,Plaza de Cataluña                                                                                                                                                                                       ,40.4511569,-3.6781956,bus,stop,322
434                                               ,Cinca                                                                                                                                                                                                   ,40.4520529,-3.6805514,bus,stop,323
435                                               ,Hospital San Rafael                                                                                                                                                                                     ,40.4539316,-3.6797331,bus,stop,324
437                                               ,Príncipe de Vergara-Serrano                                                                                                                                                                             ,40.4564548,-3.6765505,bus,stop,325
4849                                              ,Ecuador                                                                                                                                                                                                 ,40.4576944,-3.6756312,bus,stop,326
439                                               ,Colombia                                                                                                                                                                                                ,40.459912,-3.6753822,bus,stop,327
299                                               ,Chile                                                                                                                                                                                                   ,40.4601984,-3.6741702,bus,stop,328
300                                               ,Costa Rica                                                                                                                                                                                              ,40.4601537,-3.6710088,bus,stop,329
302                                               ,José María Soler                                                                                                                                                                                        ,40.4606049,-3.6677816,bus,stop,330
217                                               ,Arturo Soria-Gran Vía de Hortaleza                                                                                                                                                                      ,40.4628963,-3.6609632,bus,stop,331
216                                               ,Arturo Soria-Aleixandre                                                                                                                                                                                 ,40.4659433,-3.663765,bus,stop,332
214                                               ,Arturo Soria-Añastro                                                                                                                                                                                    ,40.4693794,-3.6646953,bus,stop,333
497                                               ,Arturo Soria-Julio Dánvila                                                                                                                                                                              ,40.4730133,-3.6656867,bus,stop,334
499                                               ,Ingenieros Navales                                                                                                                                                                                      ,40.4750821,-3.6662498,bus,stop,335
501                                               ,San Luis-Arturo Soria                                                                                                                                                                                   ,40.4772882,-3.6664478,bus,stop,336
503                                               ,San Luis-Mesena                                                                                                                                                                                         ,40.4765783,-3.664554,bus,stop,337
505                                               ,San Luis-Almanzora                                                                                                                                                                                      ,40.4757211,-3.6616552,bus,stop,338
507                                               ,Almanzora-Bacares                                                                                                                                                                                       ,40.477382,-3.6595125,bus,stop,339
508                                               ,Almanzora                                                                                                                                                                                               ,40.4787806,-3.6575442,bus,stop,340
509                                               ,Alicún                                                                                                                                                                                                  ,40.4809846,-3.6580966,bus,stop,341
510                                               ,Vélez Rubio                                                                                                                                                                                             ,40.4800106,-3.6598686,bus,stop,342
511                                               ,Manoteras                                                                                                                                                                                               ,40.4781837,-3.6611131,bus,stop,343
512                                               ,Almanzora-Bacares                                                                                                                                                                                       ,40.4772982,-3.6599954,bus,stop,344
506                                               ,San Luis-Almanzora                                                                                                                                                                                      ,40.4758279,-3.6618922,bus,stop,345
504                                               ,San Luis-Mesena                                                                                                                                                                                         ,40.4768122,-3.664627,bus,stop,346
502                                               ,San Luis-Arturo Soria                                                                                                                                                                                   ,40.4776294,-3.6666407,bus,stop,347
513                                               ,Cuartel de la Marina                                                                                                                                                                                    ,40.4768965,-3.6671879,bus,stop,348
